city,state_name,county_name,lat,lng,id
New York,New York,Queens,40.6943,-73.9249,1840034016
Los Angeles,California,Los Angeles,34.1141,-118.4068,1840020491
Chicago,Illinois,Cook,41.8375,-87.6866,1840000494
Miami,Florida,Miami-Dade,25.784,-80.2101,1840015149
Houston,Texas,Harris,29.786,-95.3885,1840020925
Dallas,Texas,Dallas,32.7935,-96.7667,1840019440
Philadelphia,Pennsylvania,Philadelphia,40.0077,-75.1339,1840000673
Atlanta,Georgia,Fulton,33.7628,-84.422,1840013660
Washington,District of Columbia,District of Columbia,38.9047,-77.0163,1840006060
Boston,Massachusetts,Suffolk,42.3188,-71.0852,1840000455
Phoenix,Arizona,Maricopa,33.5722,-112.0892,1840020568
Detroit,Michigan,Wayne,42.3834,-83.1024,1840003971
Seattle,Washington,King,47.6211,-122.3244,1840021117
San Francisco,California,San Francisco,37.7558,-122.4449,1840021543
San Diego,California,San Diego,32.8313,-117.1222,1840021990
Minneapolis,Minnesota,Hennepin,44.9635,-93.2678,1840007830
Tampa,Florida,Hillsborough,27.9945,-82.4447,1840015982
Brooklyn,New York,Kings,40.6501,-73.9496,1840034030
Denver,Colorado,Denver,39.762,-104.8758,1840018789
Queens,New York,Queens,40.7498,-73.7976,1840034002
Riverside,California,Riverside,33.9381,-117.3949,1840020551
Las Vegas,Nevada,Clark,36.2333,-115.2654,1840020364
Baltimore,Maryland,Baltimore,39.3051,-76.6144,1840001592
St. Louis,Missouri,St. Louis,38.6359,-90.2451,1840001651
Portland,Oregon,Multnomah,45.5371,-122.65,1840019941
San Antonio,Texas,Bexar,29.4632,-98.5238,1840022220
Sacramento,California,Sacramento,38.5677,-121.4685,1840021491
Austin,Texas,Travis,30.3005,-97.7522,1840019590
Orlando,Florida,Orange,28.4773,-81.337,1840015099
San Juan,Puerto Rico,San Juan,18.3985,-66.061,1630035577
San Jose,California,Santa Clara,37.3012,-121.848,1840021570
Indianapolis,Indiana,Marion,39.7771,-86.1458,1840030084
Pittsburgh,Pennsylvania,Allegheny,40.4397,-79.9763,1840001254
Cincinnati,Ohio,Hamilton,39.1413,-84.506,1840003814
Manhattan,New York,New York,40.7834,-73.9662,1840034000
Kansas City,Missouri,Jackson,39.1238,-94.5541,1840008535
Cleveland,Ohio,Cuyahoga,41.4764,-81.6805,1840000596
Columbus,Ohio,Franklin,39.9862,-82.9855,1840003760
Bronx,New York,Bronx,40.8501,-73.8662,1840033999
Charlotte,North Carolina,Mecklenburg,35.2083,-80.8303,1840014557
Virginia Beach,Virginia,Virginia Beach,36.7335,-76.0435,1840003871
Jacksonville,Florida,Duval,30.3322,-81.6749,1840015031
Milwaukee,Wisconsin,Milwaukee,43.0642,-87.9675,1840003046
Providence,Rhode Island,Providence,41.823,-71.4187,1840003289
Nashville,Tennessee,Davidson,36.1715,-86.7842,1840036155
Salt Lake City,Utah,Salt Lake,40.7776,-111.9311,1840021383
Raleigh,North Carolina,Wake,35.8324,-78.6429,1840014497
Richmond,Virginia,Richmond,37.5295,-77.4756,1840001698
Memphis,Tennessee,Shelby,35.1087,-89.9663,1840015457
Oklahoma City,Oklahoma,Oklahoma,35.4676,-97.5136,1840020428
Hartford,Connecticut,Capitol,41.7661,-72.6834,1840004773
Louisville,Kentucky,Jefferson,38.1663,-85.6485,1840030815
Buffalo,New York,Erie,42.9018,-78.8487,1840000386
Fort Worth,Texas,Tarrant,32.7817,-97.3474,1840020696
Bridgeport,Connecticut,Greater Bridgeport,41.1918,-73.1954,1840004836
New Orleans,Louisiana,Orleans,30.0687,-89.9288,1840001839
Tucson,Arizona,Pima,32.1541,-110.8787,1840022101
El Paso,Texas,El Paso,31.8476,-106.43,1840023252
Omaha,Nebraska,Douglas,41.2627,-96.0529,1840009315
McAllen,Texas,Hidalgo,26.2252,-98.2467,1840021024
Birmingham,Alabama,Jefferson,33.5279,-86.7971,1840006507
Albuquerque,New Mexico,Bernalillo,35.1054,-106.6465,1840019176
Tulsa,Oklahoma,Tulsa,36.1283,-95.9042,1840021672
Charleston,South Carolina,Charleston,32.8168,-79.9687,1840015163
Fresno,California,Fresno,36.783,-119.7939,1840020319
Rochester,New York,Monroe,43.168,-77.6162,1840000373
Dayton,Ohio,Montgomery,39.7805,-84.2003,1840034249
Cape Coral,Florida,Lee,26.6443,-81.9957,1840015130
Provo,Utah,Utah,40.2457,-111.6457,1840020174
Colorado Springs,Colorado,El Paso,38.8674,-104.7605,1840018825
Mission Viejo,California,Orange,33.6096,-117.6551,1840020580
Allentown,Pennsylvania,Lehigh,40.5961,-75.4756,1840001044
Baton Rouge,Louisiana,East Baton Rouge,30.442,-91.1311,1840013941
Ogden,Utah,Weber,41.2279,-111.9682,1840020135
Knoxville,Tennessee,Knox,35.9692,-83.9496,1840014486
Grand Rapids,Michigan,Kent,42.9619,-85.6562,1840002928
Columbia,South Carolina,Richland,34.0378,-80.9036,1840014730
Albany,New York,Albany,42.6664,-73.7987,1840000417
Bakersfield,California,Kern,35.3529,-119.0359,1840019148
New Haven,Connecticut,South Central Connecticut,41.3113,-72.9246,1840004850
Des Moines,Iowa,Polk,41.5725,-93.6105,1840007069
Palm Bay,Florida,Brevard,27.9631,-80.6593,1840015094
Akron,Ohio,Summit,41.0798,-81.5219,1840000791
Concord,California,Contra Costa,37.9722,-122.0016,1840018905
Mesa,Arizona,Maricopa,33.4015,-111.7178,1840020566
Wichita,Kansas,Sedgwick,37.6895,-97.3443,1840001686
Harrisburg,Pennsylvania,Dauphin,40.2752,-76.8843,1840001288
Staten Island,New York,Richmond,40.5834,-74.1496,1840034032
Toledo,Ohio,Lucas,41.6638,-83.5827,1840000572
Worcester,Massachusetts,Worcester,42.2705,-71.8079,1840000434
Port St. Lucie,Florida,St. Lucie,27.2796,-80.3884,1840015119
Little Rock,Arkansas,Pulaski,34.7256,-92.3577,1840015509
Madison,Wisconsin,Dane,43.0822,-89.393,1840002915
Spokane,Washington,Spokane,47.6671,-117.433,1840021093
Long Beach,California,Los Angeles,33.7977,-118.167,1840020490
Denton,Texas,Denton,33.2175,-97.1418,1840019390
Reno,Nevada,Washoe,39.5497,-119.8483,1840020121
Boise,Idaho,Ada,43.6005,-116.2308,1840027142
Bonita Springs,Florida,Lee,26.3558,-81.7859,1840014227
Kissimmee,Florida,Osceola,28.3041,-81.4169,1840015109
Augusta,Georgia,Richmond,33.3645,-82.0708,1840029462
Springfield,Massachusetts,Hampden,42.1155,-72.5395,1840000466
Oakland,California,Alameda,37.7904,-122.2166,1840020296
Winston-Salem,North Carolina,Forsyth,36.1029,-80.261,1840015324
Stockton,California,San Joaquin,37.9765,-121.3109,1840021517
Durham,North Carolina,Durham,35.9792,-78.9022,1840013364
Chattanooga,Tennessee,Hamilton,35.066,-85.2481,1840014569
Greenville,South Carolina,Greenville,34.8354,-82.3646,1840013501
Lancaster,Pennsylvania,Lancaster,40.042,-76.3012,1840003718
Syracuse,New York,Onondaga,43.0407,-76.1437,1840000378
Fayetteville,Arkansas,Washington,36.0714,-94.1661,1840013368
Pensacola,Florida,Escambia,30.4413,-87.1911,1840015005
Arlington,Texas,Tarrant,32.6998,-97.125,1840019422
Aurora,Colorado,Arapahoe,39.7083,-104.7237,1840018794
Scranton,Pennsylvania,Lackawanna,41.4044,-75.6649,1840003389
Oxnard,California,Ventura,34.1964,-119.1815,1840020474
Indio,California,Riverside,33.7346,-116.2346,1840019304
Victorville,California,San Bernardino,34.5277,-117.3536,1840021731
Trenton,New Jersey,Mercer,40.2237,-74.7641,1840001383
Huntsville,Alabama,Madison,34.6981,-86.6412,1840005061
Modesto,California,Stanislaus,37.6375,-121.0028,1840020287
Honolulu,Hawaii,Honolulu,21.3294,-157.846,1840013305
Greensboro,North Carolina,Guilford,36.0956,-79.8271,1840013356
Fort Wayne,Indiana,Allen,41.0888,-85.1436,1840008261
Anaheim,California,Orange,33.839,-117.8574,1840019322
Corpus Christi,Texas,Nueces,27.7254,-97.3767,1840019718
Fort Collins,Colorado,Larimer,40.5477,-105.0656,1840020151
Antioch,California,Contra Costa,37.9787,-121.796,1840018903
Jackson,Mississippi,Hinds,32.3157,-90.2125,1840014895
Fayetteville,North Carolina,Cumberland,35.085,-78.9772,1840013490
Myrtle Beach,South Carolina,Horry,33.7094,-78.8844,1840014717
Henderson,Nevada,Clark,36.0133,-115.0381,1840020361
Mobile,Alabama,Mobile,30.6782,-88.1162,1840006009
Lexington,Kentucky,Fayette,38.0423,-84.4587,1840015211
Lansing,Michigan,Ingham,42.7142,-84.5601,1840003102
Savannah,Georgia,Chatham,32.0286,-81.1821,1840015830
Youngstown,Ohio,Mahoning,41.0993,-80.6463,1840003563
Ann Arbor,Michigan,Washtenaw,42.2759,-83.731,1840003172
Santa Ana,California,Orange,33.7367,-117.8819,1840021964
Irvine,California,Orange,33.6772,-117.7738,1840019325
St. Paul,Minnesota,Ramsey,44.9478,-93.1039,1840008940
Poughkeepsie,New York,Dutchess,41.695,-73.9211,1840000500
Newark,New Jersey,Essex,40.7245,-74.1725,1840002791
Santa Rosa,California,Sonoma,38.4458,-122.7067,1840021488
Concord,North Carolina,Cabarrus,35.3933,-80.6369,1840014559
Winter Haven,Florida,Polk,28.0118,-81.7014,1840015970
Asheville,North Carolina,Buncombe,35.5707,-82.5537,1840013411
Canton,Ohio,Stark,40.8078,-81.3676,1840000963
Lincoln,Nebraska,Lancaster,40.8099,-96.6784,1840009357
Flint,Michigan,Genesee,43.0236,-83.6921,1840002949
Lakeland,Florida,Polk,28.0557,-81.9545,1840015108
Jersey City,New Jersey,Hudson,40.7184,-74.0686,1840003600
Anchorage,Alaska,Anchorage,61.1508,-149.1091,1840023385
Springfield,Missouri,Greene,37.1943,-93.2916,1840009904
Plano,Texas,Collin,33.0502,-96.7486,1840020662
Lubbock,Texas,Lubbock,33.5657,-101.8879,1840020604
Davenport,Iowa,Scott,41.5565,-90.6053,1840007081
Reading,Pennsylvania,Berks,40.34,-75.9267,1840001185
Shreveport,Louisiana,Caddo,32.4653,-93.7955,1840015768
Chandler,Arizona,Maricopa,33.2825,-111.8514,1840019309
South Bend,Indiana,St. Joseph,41.6767,-86.2696,1840009241
Wilmington,North Carolina,New Hanover,34.2099,-77.8866,1840015576
Chula Vista,California,San Diego,32.6281,-117.0144,1840019350
Rockford,Illinois,Winnebago,42.2596,-89.064,1840009132
Eugene,Oregon,Lane,44.0564,-123.1174,1840020007
Salem,Oregon,Marion,44.9233,-123.0244,1840021224
Gilbert,Arizona,Maricopa,33.31,-111.7463,1840021947
North Las Vegas,Nevada,Clark,36.2883,-115.0888,1840020363
Santa Clarita,California,Los Angeles,34.4175,-118.4964,1840021864
Peoria,Illinois,Peoria,40.752,-89.6154,1840009373
Tallahassee,Florida,Leon,30.4551,-84.2527,1840015913
Killeen,Texas,Bell,31.0753,-97.7297,1840020854
St. Petersburg,Florida,Pinellas,27.7931,-82.6652,1840015977
Kennewick,Washington,Benton,46.1978,-119.1732,1840018481
Columbus,Georgia,Muscogee,32.51,-84.8771,1840014887
Laredo,Texas,Webb,27.5625,-99.4874,1840021002
Irving,Texas,Dallas,32.8583,-96.9702,1840019438
Round Lake Beach,Illinois,Lake,42.3791,-88.0811,1840011171
Montgomery,Alabama,Montgomery,32.3482,-86.2668,1840008353
Chesapeake,Virginia,Chesapeake,36.6778,-76.3023,1840003874
Glendale,Arizona,Maricopa,33.5791,-112.2311,1840020563
Nashua,New Hampshire,Hillsborough,42.7491,-71.491,1840002984
York,Pennsylvania,York,39.9651,-76.7315,1840001472
Garland,Texas,Dallas,32.91,-96.6304,1840020707
Rock Hill,South Carolina,York,34.9415,-81.0241,1840014618
Scottsdale,Arizona,Maricopa,33.6872,-111.8651,1840021940
Aguadilla,Puerto Rico,Aguadilla,18.4382,-67.1537,1630035605
Arlington,Virginia,Arlington,38.8786,-77.1011,1840006112
Norfolk,Virginia,Norfolk,36.8945,-76.259,1840003869
Appleton,Wisconsin,Outagamie,44.278,-88.3892,1840002400
Enterprise,Nevada,Clark,36.0091,-115.2278,1840033827
Gulfport,Mississippi,Harrison,30.4274,-89.0704,1840013947
Lafayette,Louisiana,Lafayette,30.2082,-92.0325,1840015044
Bremerton,Washington,Kitsap,47.5436,-122.7121,1840018410
Fremont,California,Alameda,37.5265,-121.9843,1840020292
Green Bay,Wisconsin,Brown,44.5148,-87.9895,1840002344
Fargo,North Dakota,Cass,46.8651,-96.8292,1840000177
Deltona,Florida,Volusia,28.905,-81.2137,1840015072
Brownsville,Texas,Cameron,25.9975,-97.458,1840019743
Hialeah,Florida,Miami-Dade,25.8696,-80.3045,1840015157
San Bernardino,California,San Bernardino,34.1416,-117.2943,1840021728
Tacoma,Washington,Pierce,47.2431,-122.4531,1840021129
Gainesville,Florida,Alachua,29.6804,-82.3459,1840014022
Spring Valley,Nevada,Clark,36.0952,-115.2636,1840033832
Clarksville,Tennessee,Montgomery,36.5692,-87.3413,1840014421
College Station,Texas,Brazos,30.5852,-96.2959,1840019570
Olympia,Washington,Thurston,47.0417,-122.8959,1840019865
Roanoke,Virginia,Roanoke,37.2785,-79.9581,1840003858
Portland,Maine,Cumberland,43.6773,-70.2715,1840000327
Fontana,California,San Bernardino,34.0968,-117.4599,1840020402
Spartanburg,South Carolina,Spartanburg,34.9442,-81.9251,1840015482
Moreno Valley,California,Riverside,33.9244,-117.2045,1840020552
Frisco,Texas,Collin,33.156,-96.8216,1840020654
Yonkers,New York,Westchester,40.9466,-73.8673,1840003478
Thousand Oaks,California,Ventura,34.1914,-118.8756,1840021844
Sioux Falls,South Dakota,Minnehaha,43.5396,-96.7311,1840002648
Hagerstown,Maryland,Washington,39.6401,-77.7217,1840005613
Evansville,Indiana,Vanderburgh,37.9881,-87.5341,1840013730
Amarillo,Texas,Potter,35.1984,-101.8316,1840019156
Kalamazoo,Michigan,Kalamazoo,42.2749,-85.5882,1840003185
Lorain,Ohio,Lorain,41.4409,-82.184,1840000644
Galveston,Texas,Galveston,29.2484,-94.8913,1840020970
McKinney,Texas,Collin,33.2016,-96.667,1840020657
Huntington,West Virginia,Cabell,38.4109,-82.4345,1840006211
Nampa,Idaho,Canyon,43.5844,-116.5638,1840020041
Hickory,North Carolina,Catawba,35.741,-81.3223,1840014524
Waterbury,Connecticut,Naugatuck Valley,41.5582,-73.0361,1840004851
Sunrise Manor,Nevada,Clark,36.1783,-115.0487,1840033833
Grand Prairie,Texas,Dallas,32.6871,-97.0208,1840020709
Ocala,Florida,Marion,29.178,-82.1511,1840015067
Waco,Texas,McLennan,31.5599,-97.1882,1840022140
Overland Park,Kansas,Johnson,38.887,-94.687,1840003834
Frederick,Maryland,Frederick,39.4337,-77.4141,1840005710
Huntington Beach,California,Orange,33.696,-118.0018,1840020578
Santa Barbara,California,Santa Barbara,34.4285,-119.7202,1840021829
Peoria,Arizona,Maricopa,33.7843,-112.2989,1840020567
Cedar Rapids,Iowa,Linn,41.9662,-91.6783,1840000471
Vancouver,Washington,Clark,45.6366,-122.5967,1840021189
Glendale,California,Los Angeles,34.1819,-118.2468,1840020483
Gastonia,North Carolina,Gaston,35.2494,-81.1854,1840013468
Spring Hill,Florida,Hernando,28.4798,-82.53,1840014105
Murfreesboro,Tennessee,Rutherford,35.849,-86.4121,1840014495
Tempe,Arizona,Maricopa,33.3881,-111.9319,1840021942
Paradise,Nevada,Clark,36.0872,-115.1355,1840033743
Newport News,Virginia,Newport News,37.1051,-76.5185,1840003862
Erie,Pennsylvania,Erie,42.1167,-80.0733,1840000478
Fort Lauderdale,Florida,Broward,26.1412,-80.1464,1840014236
Gainesville,Georgia,Hall,34.2902,-83.8294,1840013612
Aurora,Illinois,Kane,41.7638,-88.2902,1840007034
Mauldin,South Carolina,Greenville,34.7821,-82.3032,1840015476
Ontario,California,San Bernardino,34.0393,-117.6064,1840020410
Elk Grove,California,Sacramento,38.4161,-121.3842,1840020245
Panama City,Florida,Bay,30.1995,-85.6003,1840015034
Cary,North Carolina,Wake,35.7819,-78.8195,1840016196
Hemet,California,Riverside,33.7341,-116.9969,1840020550
Danbury,Connecticut,Western Connecticut,41.4015,-73.4709,1840004837
Rancho Cucamonga,California,San Bernardino,34.1247,-117.5667,1840020411
Salinas,California,Monterey,36.6883,-121.6317,1840021632
Oceanside,California,San Diego,33.2247,-117.3083,1840020623
Vallejo,California,Solano,38.1125,-122.2342,1840021499
High Point,North Carolina,Guilford,35.991,-79.9937,1840014479
Garden Grove,California,Orange,33.7787,-117.9601,1840020577
Pembroke Pines,Florida,Broward,26.0128,-80.3382,1840015141
Lancaster,California,Los Angeles,34.6935,-118.1753,1840020516
Marysville,Washington,Snohomish,48.0809,-122.1561,1840019789
Bayamón,Puerto Rico,Bayamón,18.3794,-66.1635,1630035622
Fredericksburg,Virginia,Fredericksburg,38.2992,-77.4872,1840003845
Visalia,California,Tulare,36.3276,-119.3269,1840021639
Tuscaloosa,Alabama,Tuscaloosa,33.2348,-87.5268,1840005563
Palmdale,California,Los Angeles,34.5944,-118.1057,1840020502
Santa Cruz,California,Santa Cruz,36.9789,-122.0346,1840021579
Medford,Oregon,Jackson,42.3372,-122.854,1840020076
Norwich,Connecticut,Southeastern Connecticut,41.5495,-72.0882,1840004828
Merced,California,Merced,37.3057,-120.4779,1840020313
Manchester,New Hampshire,Hillsborough,42.9848,-71.4447,1840002983
Odessa,Texas,Ector,31.8801,-102.3448,1840020794
Muskegon,Michigan,Muskegon,43.2281,-86.2562,1840002870
Leesburg,Florida,Lake,28.7672,-81.8962,1840015083
Lafayette,Indiana,Tippecanoe,40.3991,-86.8593,1840008354
Hayward,California,Alameda,37.6328,-122.0766,1840020293
Corona,California,Riverside,33.8616,-117.5649,1840019305
Paterson,New Jersey,Passaic,40.9147,-74.1624,1840000838
Alexandria,Virginia,Alexandria,38.8185,-77.0861,1840003837
Macon,Georgia,Bibb,32.8065,-83.6974,1840043455
Lakewood,Colorado,Jefferson,39.6977,-105.1172,1840020198
Springfield,Illinois,Sangamon,39.7709,-89.654,1840009517
Kansas City,Kansas,Wyandotte,39.1235,-94.7443,1840001626
Burlington,North Carolina,Alamance,36.076,-79.4685,1840013362
Warner Robins,Georgia,Houston,32.5961,-83.6527,1840015800
Sunnyvale,California,Santa Clara,37.3836,-122.0255,1840021573
Hollywood,Florida,Broward,26.0293,-80.1679,1840015144
Roseville,California,Placer,38.7703,-121.3196,1840020233
New Bedford,Massachusetts,Bristol,41.6697,-70.9428,1840003219
South Lyon,Michigan,Oakland,42.4614,-83.6526,1840002432
Bellevue,Washington,King,47.5951,-122.1535,1840018417
Fairfield,California,Solano,38.2583,-122.0335,1840020253
Binghamton,New York,Broome,42.1014,-75.9093,1840000460
Topeka,Kansas,Shawnee,39.0346,-95.6955,1840001621
Escondido,California,San Diego,33.1348,-117.0723,1840020620
Joliet,Illinois,Will,41.5188,-88.1499,1840008192
Surprise,Arizona,Maricopa,33.6815,-112.4515,1840021941
Naperville,Illinois,DuPage,41.748,-88.1659,1840008143
Pasadena,Texas,Harris,29.6575,-95.1498,1840020930
Mesquite,Texas,Dallas,32.7602,-96.5865,1840020713
Champaign,Illinois,Champaign,40.1142,-88.2737,1840007239
Pomona,California,Los Angeles,34.0585,-117.7626,1840020507
Houma,Louisiana,Terrebonne,29.58,-90.7059,1840015063
Athens,Georgia,Clarke,33.9508,-83.3689,1840029463
St. George,Utah,Washington,37.0758,-113.5752,1840021559
Beaumont,Texas,Jefferson,30.0849,-94.1451,1840019612
Elkhart,Indiana,Elkhart,41.6916,-85.9627,1840008187
Lake Charles,Louisiana,Calcasieu,30.201,-93.2111,1840015039
Santa Maria,California,Santa Barbara,34.9333,-120.4431,1840021830
Yuma,Arizona,Yuma,32.5995,-114.5491,1840021998
Olathe,Kansas,Johnson,38.8833,-94.82,1840003833
Midland,Texas,Midland,32.0243,-102.1147,1840020792
Greeley,Colorado,Weld,40.4152,-104.7706,1840020149
Torrance,California,Los Angeles,33.8346,-118.3416,1840021873
Thornton,Colorado,Adams,39.9197,-104.9438,1840021422
Las Cruces,New Mexico,Doña Ana,32.3265,-106.7893,1840020683
Columbia,Missouri,Boone,38.9472,-92.3268,1840007391
Fullerton,California,Orange,33.8841,-117.9279,1840020576
Grand Junction,Colorado,Mesa,39.0877,-108.5673,1840020230
Carolina,Puerto Rico,Carolina,18.4054,-65.9792,1630035637
Metairie,Louisiana,Jefferson,29.9977,-90.178,1840013994
Orange,California,Orange,33.8038,-117.8218,1840020582
Warren,Michigan,Macomb,42.4934,-83.027,1840002418
West Valley City,Utah,Salt Lake,40.6886,-112.0123,1840021389
Hampton,Virginia,Hampton,37.0551,-76.363,1840003866
Pasadena,California,Los Angeles,34.1597,-118.139,1840020505
Miramar,Florida,Broward,25.9773,-80.3351,1840015137
Elizabeth,New Jersey,Union,40.6658,-74.1913,1840003613
Stamford,Connecticut,Western Connecticut,41.1039,-73.5585,1840004841
Racine,Wisconsin,Racine,42.7274,-87.8135,1840002493
Kent,Washington,King,47.3887,-122.2128,1840018424
Yakima,Washington,Yakima,46.5923,-120.5496,1840021154
Coral Springs,Florida,Broward,26.2702,-80.2591,1840015134
Sterling Heights,Michigan,Macomb,42.5809,-83.0305,1840003094
Billings,Montana,Yellowstone,45.7891,-108.5526,1840018496
Bloomington,Illinois,McLean,40.4757,-88.9703,1840007207
Charleston,West Virginia,Kanawha,38.3484,-81.6322,1840006196
Carrollton,Texas,Dallas,32.989,-96.8999,1840019436
Tyler,Texas,Smith,32.3184,-95.3062,1840022076
Iowa City,Iowa,Johnson,41.6559,-91.5303,1840000532
Johnson City,Tennessee,Washington,36.3406,-82.3806,1840014462
Santa Clara,California,Santa Clara,37.3646,-121.968,1840021571
Bellingham,Washington,Whatcom,48.7548,-122.469,1840018346
Norman,Oklahoma,Cleveland,35.2335,-97.3471,1840020451
Coeur d'Alene,Idaho,Kootenai,47.704,-116.7936,1840018402
Fort Smith,Arkansas,Sebastian,35.3495,-94.3695,1840013456
Lewisville,Texas,Denton,33.0454,-96.9815,1840020639
Dover,Delaware,Kent,39.161,-75.5202,1840005810
Yuba City,California,Sutter,39.1357,-121.6383,1840021463
Lehigh Acres,Florida,Lee,26.612,-81.6388,1840014220
Abilene,Texas,Taylor,32.4543,-99.7384,1840019476
Simi Valley,California,Ventura,34.2663,-118.749,1840021843
Pearland,Texas,Brazoria,29.5581,-95.3218,1840020979
Kenosha,Wisconsin,Kenosha,42.5865,-87.8773,1840003160
Arecibo,Puerto Rico,Arecibo,18.4491,-66.7387,1630023566
Meridian,Idaho,Ada,43.6116,-116.3977,1840020046
Round Rock,Texas,Williamson,30.527,-97.6642,1840020879
Waldorf,Maryland,Charles,38.6085,-76.9194,1840006175
Temple,Texas,Bell,31.1068,-97.3891,1840022154
Lynchburg,Virginia,Lynchburg,37.4003,-79.1909,1840003855
Rochester,Minnesota,Olmsted,44.0154,-92.478,1840008987
Logan,Utah,Cache,41.7399,-111.8422,1840020108
Arvada,Colorado,Jefferson,39.832,-105.151,1840018788
Clovis,California,Fresno,36.8278,-119.683,1840018944
Independence,Missouri,Jackson,39.0871,-94.3501,1840008534
Redding,California,Shasta,40.5698,-122.365,1840020141
Greenville,North Carolina,Pitt,35.5943,-77.376,1840013407
Duluth,Minnesota,St. Louis,46.7756,-92.1393,1840007685
Berkeley,California,Alameda,37.8722,-122.276,1840018914
Boulder,Colorado,Boulder,40.0248,-105.2524,1840018774
Pueblo,Colorado,Pueblo,38.2701,-104.6114,1840020255
West Palm Beach,Florida,Palm Beach,26.7469,-80.132,1840015993
Burlington,Vermont,Chittenden,44.4876,-73.2316,1840002310
Seaside,California,Monterey,36.6224,-121.8199,1840021634
Richardson,Texas,Dallas,32.9716,-96.7093,1840020710
Cambridge,Massachusetts,Middlesex,42.3759,-71.1185,1840000429
Monroe,Louisiana,Ouachita,32.5185,-92.0774,1840014881
North Charleston,South Carolina,Charleston,32.9067,-80.0722,1840015164
Saginaw,Michigan,Saginaw,43.4199,-83.9501,1840002813
Clearwater,Florida,Pinellas,27.979,-82.7623,1840015110
The Woodlands,Texas,Montgomery,30.1738,-95.5134,1840019585
Brandon,Florida,Hillsborough,27.9367,-82.3,1840014151
St. Cloud,Minnesota,Stearns,45.534,-94.1718,1840008881
West Jordan,Utah,Salt Lake,40.6024,-112.0008,1840021388
Broken Arrow,Oklahoma,Tulsa,36.038,-95.7806,1840019059
Harlingen,Texas,Cameron,26.1916,-97.6977,1840021036
Kailua,Hawaii,Honolulu,21.392,-157.7396,1840023244
Westminster,Colorado,Adams,39.8837,-105.0624,1840021423
Gilroy,California,Santa Clara,37.0046,-121.5854,1840020327
Richmond,California,Contra Costa,37.9477,-122.3389,1840020277
Mandeville,Louisiana,St. Tammany,30.3751,-90.0904,1840015909
Utica,New York,Oneida,43.0962,-75.2261,1840002746
Ponce,Puerto Rico,Ponce,18.0127,-66.6212,1630023669
League City,Texas,Galveston,29.4874,-95.1087,1840020973
Port Arthur,Texas,Jefferson,29.8554,-93.9264,1840020919
Lowell,Massachusetts,Middlesex,42.6389,-71.3217,1840000426
East Los Angeles,California,Los Angeles,34.0326,-118.1691,1840019206
Carlsbad,California,San Diego,33.1246,-117.2834,1840019352
Elgin,Illinois,Kane,42.0383,-88.324,1840008134
Waterloo,Iowa,Black Hawk,42.4918,-92.3522,1840000440
Leominster,Massachusetts,Worcester,42.5209,-71.7717,1840000437
Bend,Oregon,Deschutes,44.0563,-121.3095,1840018618
Sioux City,Iowa,Woodbury,42.4959,-96.3901,1840000447
Gresham,Oregon,Multnomah,45.5021,-122.4413,1840019939
Longview,Texas,Gregg,32.5193,-94.7622,1840020746
Pompano Beach,Florida,Broward,26.2428,-80.1312,1840015143
Downey,California,Los Angeles,33.9379,-118.1311,1840019245
Murrieta,California,Riverside,33.5719,-117.1909,1840020553
Idaho Falls,Idaho,Bonneville,43.4871,-112.0362,1840018644
Miami Gardens,Florida,Miami-Dade,25.9433,-80.2426,1840015151
Everett,Washington,Snohomish,47.9525,-122.1669,1840019785
Holland,Michigan,Ottawa,42.7677,-86.0984,1840002996
Costa Mesa,California,Orange,33.6667,-117.9135,1840019326
Temecula,California,Riverside,33.4928,-117.1315,1840021937
Jacksonville,North Carolina,Onslow,34.7289,-77.3941,1840014653
San Buenaventura,California,Ventura,34.2741,-119.2314,1840037414
Sugar Land,Texas,Fort Bend,29.5935,-95.6358,1840022217
Chico,California,Butte,39.7578,-121.8161,1840018778
South Fulton,Georgia,Fulton,33.6273,-84.58,1840029465
Sparks,Nevada,Washoe,39.5736,-119.7161,1840021337
Eau Claire,Wisconsin,Eau Claire,44.8197,-91.4948,1840002296
Auburn,Alabama,Lee,32.6087,-85.4903,1840013810
Dearborn,Michigan,Wayne,42.3127,-83.213,1840003969
Riverview,Florida,Hillsborough,27.8227,-82.3023,1840014158
Allen,Texas,Collin,33.1088,-96.6735,1840019396
West Covina,California,Los Angeles,34.0555,-117.9113,1840021876
Centennial,Colorado,Arapahoe,39.5926,-104.8673,1840018792
Bloomington,Indiana,Monroe,39.1637,-86.5257,1840007376
Sandy Springs,Georgia,Fulton,33.9366,-84.3703,1840015609
El Monte,California,Los Angeles,34.0739,-118.0291,1840020480
Hillsboro,Oregon,Washington,45.5273,-122.936,1840019932
Menifee,California,Riverside,33.6909,-117.1849,1840022903
Rio Rancho,New Mexico,Sandoval,35.2873,-106.6982,1840020387
Davie,Florida,Broward,26.0789,-80.287,1840017272
Jurupa Valley,California,Riverside,34.001,-117.4706,1840043419
Columbia,Maryland,Howard,39.2004,-76.859,1840005803
Inglewood,California,Los Angeles,33.9566,-118.3444,1840019237
Spokane Valley,Washington,Spokane,47.6626,-117.2346,1840021094
Renton,Washington,King,47.4784,-122.1918,1840019827
San Tan Valley,Arizona,Pinal,33.1786,-111.5629,1840027990
Burbank,California,Los Angeles,34.1879,-118.3235,1840019233
Brockton,Massachusetts,Plymouth,42.0821,-71.0242,1840000467
El Cajon,California,San Diego,32.8017,-116.9604,1840020618
Rialto,California,San Bernardino,34.1175,-117.3892,1840020407
San Mateo,California,San Mateo,37.5522,-122.3121,1840021551
Goodyear,Arizona,Maricopa,33.2614,-112.3622,1840020564
Charlottesville,Virginia,Charlottesville,38.0375,-78.4855,1840001678
Lafayette,Colorado,Boulder,39.9946,-105.0998,1840020180
Lee's Summit,Missouri,Jackson,38.9171,-94.3816,1840032155
Edinburg,Texas,Hidalgo,26.3196,-98.1597,1840021020
Daly City,California,San Mateo,37.6862,-122.4685,1840018926
Wichita Falls,Texas,Wichita,33.9072,-98.5291,1840021923
Bowling Green,Kentucky,Warren,36.9716,-86.4378,1840013265
Longmont,Colorado,Boulder,40.1686,-105.1005,1840020178
Vacaville,California,Solano,38.3587,-121.9673,1840021498
Highlands Ranch,Colorado,Douglas,39.5419,-104.9708,1840028579
Quincy,Massachusetts,Norfolk,42.2506,-71.0187,1840000461
Fishers,Indiana,Hamilton,39.9588,-85.9659,1840010496
Lynn,Massachusetts,Essex,42.4781,-70.9664,1840000409
Norwalk,California,Los Angeles,33.9069,-118.0829,1840020501
Carmel,Indiana,Hamilton,39.965,-86.146,1840007260
Hesperia,California,San Bernardino,34.3975,-117.3147,1840020404
St. Augustine,Florida,St. Johns,29.8976,-81.31,1840015935
Buckeye,Arizona,Maricopa,33.4314,-112.6429,1840021939
San Angelo,Texas,Tom Green,31.4424,-100.4504,1840022146
Federal Way,Washington,King,47.3091,-122.3358,1840019826
Bismarck,North Dakota,Burleigh,46.8143,-100.7694,1840001926
Boca Raton,Florida,Palm Beach,26.3752,-80.108,1840014207
New Braunfels,Texas,Comal,29.6994,-98.1148,1840021341
Vista,California,San Diego,33.1896,-117.2386,1840021994
Beaverton,Oregon,Washington,45.4779,-122.8168,1840018556
Portsmouth,Virginia,Portsmouth,36.8468,-76.354,1840003872
Orem,Utah,Utah,40.2981,-111.6994,1840020171
Conroe,Texas,Montgomery,30.3238,-95.4824,1840019586
Suffolk,Virginia,Suffolk,36.6953,-76.6398,1840003873
Sunrise,Florida,Broward,26.1547,-80.2997,1840016000
Lawrence,Kansas,Douglas,38.9597,-95.2642,1840001632
Arden-Arcade,California,Sacramento,38.6017,-121.3845,1840036690
Prescott Valley,Arizona,Yavapai,34.598,-112.3185,1840021772
Middletown,Ohio,Butler,39.5033,-84.3659,1840003804
San Germán,Puerto Rico,San Germán,18.0827,-67.046,1630023526
Edmond,Oklahoma,Oklahoma,35.6689,-97.416,1840020423
Tracy,California,San Joaquin,37.7269,-121.4523,1840021518
Manteca,California,San Joaquin,37.7927,-121.2264,1840020265
Kingsport,Tennessee,Sullivan,36.5224,-82.5454,1840014425
Portsmouth,New Hampshire,Rockingham,43.058,-70.7826,1840002932
Sandy,Utah,Salt Lake,40.5709,-111.8506,1840037422
Palm Coast,Florida,Flagler,29.5389,-81.2457,1840015064
Slidell,Louisiana,St. Tammany,30.2887,-89.7828,1840015911
San Marcos,California,San Diego,33.135,-117.1743,1840021991
Livonia,Michigan,Wayne,42.3972,-83.3733,1840003985
Santa Fe,New Mexico,Santa Fe,35.6619,-105.9819,1840021707
Plantation,Florida,Broward,26.1259,-80.2617,1840015142
Atascocita,Texas,Harris,29.9777,-95.1953,1840018251
Fall River,Massachusetts,Bristol,41.7136,-71.1015,1840000497
Compton,California,Los Angeles,33.893,-118.2274,1840019240
Carson,California,Los Angeles,33.8374,-118.2559,1840019214
La Crosse,Wisconsin,La Crosse,43.8241,-91.2268,1840002577
Missoula,Montana,Missoula,46.8751,-114.0214,1840019840
O'Fallon,Missouri,St. Charles,38.785,-90.7175,1840008571
Mount Pleasant,South Carolina,Charleston,32.8537,-79.8203,1840017286
Roswell,Georgia,Fulton,34.0391,-84.3513,1840014741
Hoover,Alabama,Jefferson,33.3763,-86.8068,1840014795
Florence,South Carolina,Florence,34.178,-79.7898,1840013643
Williamsburg,Virginia,Williamsburg,37.2693,-76.7076,1840001720
South Gate,California,Los Angeles,33.9447,-118.1926,1840021870
Chino,California,San Bernardino,33.9836,-117.6654,1840019114
Fort Myers,Florida,Lee,26.6194,-81.8302,1840014226
Kirkland,Washington,King,47.697,-122.2057,1840019836
Santa Monica,California,Los Angeles,34.0235,-118.481,1840021866
Vineland,New Jersey,Cumberland,39.4653,-74.9981,1840001551
Norwalk,Connecticut,Western Connecticut,41.1144,-73.4215,1840004839
Alafaya,Florida,Orange,28.528,-81.1868,1840029102
Lawton,Oklahoma,Comanche,34.6175,-98.4202,1840020477
Avondale,Arizona,Maricopa,33.3873,-112.3235,1840019310
Germantown,Maryland,Montgomery,39.1755,-77.2643,1840005840
Rapid City,South Dakota,Pennington,44.0716,-103.2204,1840002180
Westminster,California,Orange,33.7523,-117.9938,1840021969
Clifton,New Jersey,Passaic,40.863,-74.1575,1840003511
Waukegan,Illinois,Lake,42.3698,-87.8716,1840010113
Bloomington,Minnesota,Hennepin,44.8306,-93.3151,1840006747
Mayagüez,Puerto Rico,Mayagüez,18.2003,-67.1397,1630035520
San Leandro,California,Alameda,37.7074,-122.1599,1840021538
Newton,Massachusetts,Middlesex,42.3316,-71.2085,1840000433
Joplin,Missouri,Jasper,37.0757,-94.5018,1840008771
Lawrence,Massachusetts,Essex,42.7002,-71.1626,1840000408
Springdale,Arkansas,Washington,36.1901,-94.1574,1840015336
Troy,Michigan,Oakland,42.5817,-83.1457,1840002434
Citrus Heights,California,Sacramento,38.6948,-121.288,1840018845
Deerfield Beach,Florida,Broward,26.305,-80.1277,1840015136
Town 'n' Country,Florida,Hillsborough,28.0106,-82.5763,1840029089
Winchester,Virginia,Winchester,39.1735,-78.1746,1840001623
Mission,Texas,Hidalgo,26.2039,-98.3256,1840021026
Bryan,Texas,Brazos,30.665,-96.3807,1840019569
Hawthorne,California,Los Angeles,33.9147,-118.3476,1840020486
Whittier,California,Los Angeles,33.9678,-118.0188,1840021878
Livermore,California,Alameda,37.6868,-121.7607,1840020294
Lake Forest,California,Orange,33.6605,-117.6714,1840020591
San Ramon,California,Contra Costa,37.7624,-121.9365,1840021530
Melbourne,Florida,Brevard,28.1086,-80.6627,1840015960
Franklin,Tennessee,Williamson,35.92,-86.8516,1840013380
Auburn,Washington,King,47.3039,-122.2108,1840018416
Port Huron,Michigan,St. Clair,42.9821,-82.4388,1840003953
Decatur,Illinois,Macon,39.8557,-88.9342,1840007269
Baytown,Texas,Harris,29.7587,-94.9671,1840019616
Brooklyn Park,Minnesota,Hennepin,45.1112,-93.3505,1840004023
Springfield,Ohio,Clark,39.93,-83.7959,1840003765
Newport Beach,California,Orange,33.6151,-117.8668,1840020581
Westland,Michigan,Wayne,42.3192,-83.3805,1840001847
Newark,Ohio,Licking,40.0706,-82.425,1840001419
Muncie,Indiana,Delaware,40.1989,-85.395,1840008365
Farmington Hills,Michigan,Oakland,42.486,-83.3771,1840002442
Cicero,Illinois,Cook,41.8445,-87.7593,1840009186
Buena Park,California,Orange,33.8572,-118.0046,1840019324
Warwick,Rhode Island,Kent,41.7062,-71.4334,1840003344
Hattiesburg,Mississippi,Forrest,31.3074,-89.317,1840013878
Cranston,Rhode Island,Providence,41.7658,-71.4858,1840003287
Albany,Georgia,Dougherty,31.5776,-84.1762,1840013864
Layton,Utah,Davis,41.077,-111.962,1840020145
Madera,California,Madera,36.963,-120.0778,1840020300
Largo,Florida,Pinellas,27.9088,-82.7712,1840015114
Redwood City,California,San Mateo,37.5025,-122.2253,1840020304
Mountain View,California,Santa Clara,37.4001,-122.0796,1840020332
Pine Hills,Florida,Orange,28.5818,-81.4692,1840014098
Folsom,California,Sacramento,38.6668,-121.1422,1840020246
Silver Spring,Maryland,Montgomery,39.0028,-77.0207,1840005845
Johns Creek,Georgia,Fulton,34.0333,-84.2027,1840014742
The Villages,Florida,Sumter,28.9034,-81.9887,1840014065
Owensboro,Kentucky,Daviess,37.7575,-87.1172,1840014340
Napa,California,Napa,38.2975,-122.301,1840020241
New Rochelle,New York,Westchester,40.9304,-73.7836,1840000782
Alhambra,California,Los Angeles,34.084,-118.1355,1840019222
Cheyenne,Wyoming,Laramie,41.135,-104.7902,1840018713
Miami Beach,Florida,Miami-Dade,25.8171,-80.1396,1840015150
Wenatchee,Washington,Chelan,47.436,-120.3295,1840021074
Jackson,Michigan,Jackson,42.2431,-84.4038,1840003173
Lehi,Utah,Utah,40.4136,-111.8725,1840020168
Anderson,Indiana,Madison,40.0891,-85.6892,1840007242
Homestead,Florida,Miami-Dade,25.4665,-80.4472,1840015159
Florence,Alabama,Lauderdale,34.8303,-87.6655,1840002083
Rancho Cordova,California,Sacramento,38.5737,-121.2527,1840020248
Morgantown,West Virginia,Monongalia,39.6383,-79.9464,1840005647
Boynton Beach,Florida,Palm Beach,26.5281,-80.0811,1840014208
Somerville,Massachusetts,Middlesex,42.3908,-71.1014,1840003123
North Port,Florida,Sarasota,27.0576,-82.1977,1840015120
Lakewood,California,Los Angeles,33.8471,-118.1222,1840020515
Salisbury,Maryland,Wicomico,38.3756,-75.5865,1840006219
South Jordan,Utah,Salt Lake,40.557,-111.9784,1840021385
Parma,Ohio,Cuyahoga,41.3843,-81.7286,1840003406
Pharr,Texas,Hidalgo,26.1685,-98.1904,1840021030
State College,Pennsylvania,Centre,40.7909,-77.8567,1840000830
Plymouth,Minnesota,Hennepin,45.0225,-93.4617,1840008929
Turlock,California,Stanislaus,37.5053,-120.8588,1840021533
Davis,California,Yolo,38.5553,-121.737,1840018833
Perris,California,Riverside,33.7898,-117.2233,1840020557
Jonesboro,Arkansas,Craighead,35.8212,-90.6791,1840014507
Tustin,California,Orange,33.7311,-117.8107,1840021967
Terre Haute,Indiana,Vigo,39.466,-87.3751,1840009671
Upland,California,San Bernardino,34.1178,-117.6604,1840021730
Georgetown,Texas,Williamson,30.666,-97.6966,1840020875
Texarkana,Texas,Bowie,33.45,-94.0847,1840021987
Kendall,Florida,Miami-Dade,25.6697,-80.3556,1840014244
Pasco,Washington,Franklin,46.2506,-119.1305,1840019888
Milpitas,California,Santa Clara,37.4336,-121.8921,1840020329
Carmichael,California,Sacramento,38.6318,-121.3263,1840017579
Chino Hills,California,San Bernardino,33.9508,-117.7254,1840019115
Flower Mound,Texas,Denton,33.0343,-97.1146,1840022010
Flagstaff,Arizona,Coconino,35.1872,-111.6194,1840020335
Alton,Illinois,Madison,38.9037,-90.152,1840007424
Pleasanton,California,Alameda,37.6663,-121.8805,1840020298
Cedar Park,Texas,Williamson,30.5105,-97.8197,1840019572
Bellflower,California,Los Angeles,33.888,-118.1271,1840019230
Loveland,Colorado,Larimer,40.4166,-105.0623,1840020152
Mansfield,Ohio,Richland,40.7656,-82.5275,1840000960
Hammond,Indiana,Lake,41.6168,-87.4909,1840007092
Bethlehem,Pennsylvania,Northampton,40.6266,-75.3679,1840000986
Woodbury,Minnesota,Washington,44.9057,-92.923,1840009998
Alameda,California,Alameda,37.7668,-122.267,1840018913
Wyoming,Michigan,Kent,42.8908,-85.7066,1840000374
Schaumburg,Illinois,Cook,42.0308,-88.0838,1840011319
Castle Rock,Colorado,Douglas,39.3763,-104.8535,1840022455
Evanston,Illinois,Cook,42.0464,-87.6943,1840008129
Doral,Florida,Miami-Dade,25.8152,-80.3565,1840015148
St. Joseph,Missouri,Buchanan,39.7598,-94.821,1840009549
Valdosta,Georgia,Lowndes,30.8502,-83.2788,1840015894
Wausau,Wisconsin,Marathon,44.962,-89.6459,1840002163
Pocatello,Idaho,Bannock,42.8724,-112.4647,1840013376
Elizabethtown,Kentucky,Hardin,37.7031,-85.8773,1840013218
Anniston,Alabama,Calhoun,33.6712,-85.8135,1840006563
Arlington Heights,Illinois,Cook,42.0955,-87.9826,1840011243
Rochester Hills,Michigan,Oakland,42.6645,-83.1563,1840002429
Southfield,Michigan,Oakland,42.4765,-83.2605,1840002431
Daytona Beach,Florida,Volusia,29.1995,-81.0982,1840015068
Pittsburg,California,Contra Costa,38.0182,-121.8965,1840020282
Oshkosh,Wisconsin,Winnebago,44.0227,-88.5619,1840002246
Redmond,Washington,King,47.6763,-122.1169,1840019835
Saratoga Springs,New York,Saratoga,43.0674,-73.7775,1840000369
Apple Valley,California,San Bernardino,34.5352,-117.2109,1840021733
Mansfield,Texas,Tarrant,32.569,-97.1213,1840020702
Pawtucket,Rhode Island,Providence,41.8744,-71.3743,1840003285
Missouri City,Texas,Fort Bend,29.563,-95.5365,1840020950
Broomfield,Colorado,Broomfield,39.9542,-105.0526,1840018781
Janesville,Wisconsin,Rock,42.6854,-89.0135,1840002467
San Marcos,Texas,Hays,29.8734,-97.9356,1840022188
Camarillo,California,Ventura,34.223,-119.0321,1840019201
Jackson,Tennessee,Madison,35.6538,-88.8354,1840014528
Dothan,Alabama,Houston,31.2336,-85.407,1840001518
Sherman,Texas,Grayson,33.6273,-96.6221,1840021953
Lauderhill,Florida,Broward,26.1605,-80.2241,1840015146
Harrisonburg,Virginia,Harrisonburg,38.4362,-78.8735,1840003844
Bolingbrook,Illinois,Will,41.6901,-88.1021,1840011482
Ellicott City,Maryland,Howard,39.2774,-76.8345,1840005802
Alexandria,Louisiana,Rapides,31.2923,-92.4702,1840013873
Battle Creek,Michigan,Calhoun,42.2985,-85.2296,1840003176
New Britain,Connecticut,Capitol,41.6759,-72.7862,1840004774
Sheboygan,Wisconsin,Sheboygan,43.7403,-87.7316,1840002628
Brunswick,Georgia,Glynn,31.1449,-81.4746,1840013875
Altoona,Pennsylvania,Blair,40.5082,-78.4007,1840001080
Lodi,California,San Joaquin,38.1218,-121.2932,1840020263
Redlands,California,San Bernardino,34.0512,-117.1712,1840020412
Caguas,Puerto Rico,Caguas,18.2319,-66.0388,1630023540
Dale City,Virginia,Prince William,38.6473,-77.3459,1840006094
Glen Burnie,Maryland,Anne Arundel,39.156,-76.6071,1840005917
Mount Vernon,New York,Westchester,40.9136,-73.8291,1840000781
Lakeville,Minnesota,Dakota,44.6774,-93.252,1840007859
Dover,New Hampshire,Strafford,43.1887,-70.8845,1840002808
Lebanon,Pennsylvania,Lebanon,40.3412,-76.4228,1840001347
Rocklin,California,Placer,38.8075,-121.2489,1840020232
Framingham,Massachusetts,Middlesex,42.3085,-71.4368,1840003131
Wesley Chapel,Florida,Pasco,28.2106,-82.3238,1840014118
Noblesville,Indiana,Hamilton,40.0355,-86.0042,1840013891
Tamarac,Florida,Broward,26.2056,-80.2539,1840016001
Centreville,Virginia,Fairfax,38.839,-77.4389,1840006015
Poinciana,Florida,Polk,28.1217,-81.4821,1840014132
Fairbanks,Alaska,Fairbanks North Star,64.8353,-147.6533,1840023463
Lake Elsinore,California,Riverside,33.6847,-117.3344,1840020560
Camden,New Jersey,Camden,39.9361,-75.1073,1840001507
Rogers,Arkansas,Benton,36.317,-94.1531,1840014444
Blaine,Minnesota,Anoka,45.1696,-93.2077,1840006719
Wilmington,Delaware,New Castle,39.7415,-75.5416,1840005579
St. Charles,Missouri,St. Charles,38.7954,-90.5157,1840009719
Blacksburg,Virginia,Montgomery,37.23,-80.4279,1840006446
Waukesha,Wisconsin,Waukesha,43.0087,-88.2464,1840003008
Casas Adobes,Arizona,Pima,32.3423,-111.0113,1840018108
Baldwin Park,California,Los Angeles,34.0829,-117.9722,1840019227
Cleveland,Tennessee,Bradley,35.1817,-84.8707,1840014603
Dublin,California,Alameda,37.7161,-121.8963,1840018916
Ankeny,Iowa,Polk,41.7288,-93.6031,1840007066
Maple Grove,Minnesota,Hennepin,45.1089,-93.4626,1840008923
Bayonne,New Jersey,Hudson,40.6668,-74.1158,1840003595
North Richland Hills,Texas,Tarrant,32.8604,-97.218,1840020703
Eastvale,California,Riverside,33.9617,-117.5803,1840028421
Guaynabo,Puerto Rico,Guaynabo,18.3832,-66.1134,1630023575
Glens Falls,New York,Warren,43.3109,-73.6458,1840000345
Longview,Washington,Cowlitz,46.1461,-122.963,1840019904
Tulare,California,Tulare,36.1995,-119.34,1840021638
Conway,Arkansas,Faulkner,35.0753,-92.4692,1840014598
West Des Moines,Iowa,Polk,41.5521,-93.7806,1840010185
Redondo Beach,California,Los Angeles,33.8577,-118.3765,1840020509
Walnut Creek,California,Contra Costa,37.9024,-122.0399,1840021531
Passaic,New Jersey,Passaic,40.8574,-74.1282,1840000837
Porterville,California,Tulare,36.0643,-119.0338,1840020368
Maricopa,Arizona,Pinal,33.0408,-112.0011,1840020629
Fajardo,Puerto Rico,Fajardo,18.3331,-65.6589,1630035668
Spring Hill,Tennessee,Maury,35.7437,-86.9116,1840015386
Gaithersburg,Maryland,Montgomery,39.1346,-77.2131,1840005848
El Paso de Robles,California,San Luis Obispo,35.6394,-120.656,1840074847
East Orange,New Jersey,Essex,40.7651,-74.2117,1840002792
Sumter,South Carolina,Sumter,33.9392,-80.393,1840015612
Grand Forks,North Dakota,Grand Forks,47.9214,-97.0884,1840000101
Bristol,Tennessee,Sullivan,36.5572,-82.2154,1840013301
Michigan City,Indiana,LaPorte,41.7092,-86.869,1840013869
Gary,Indiana,Lake,41.5905,-87.3473,1840008194
Dubuque,Iowa,Dubuque,42.5002,-90.707,1840000438
Schenectady,New York,Schenectady,42.8025,-73.9275,1840000395
Casper,Wyoming,Natrona,42.842,-106.3208,1840038324
Hanford,California,Kings,36.3274,-119.6549,1840020382
Shawnee,Kansas,Johnson,39.0158,-94.8076,1840001641
South Hill,Washington,Pierce,47.1198,-122.2853,1840037886
Eagan,Minnesota,Dakota,44.817,-93.1638,1840007852
Union City,California,Alameda,37.6032,-122.0181,1840021539
Weston,Florida,Broward,26.1006,-80.4054,1840016003
Kankakee,Illinois,Kankakee,41.102,-87.8643,1840008260
Leander,Texas,Williamson,30.5728,-97.8618,1840020877
Hammond,Louisiana,Tangipahoa,30.5061,-90.4563,1840013908
Corvallis,Oregon,Benton,44.5698,-123.2779,1840018611
Apex,North Carolina,Wake,35.7237,-78.8743,1840015355
Yorba Linda,California,Orange,33.889,-117.7714,1840021970
Bethesda,Maryland,Montgomery,38.9866,-77.1188,1840005826
Haverhill,Massachusetts,Essex,42.7838,-71.0871,1840002450
Palo Alto,California,Santa Clara,37.3905,-122.1468,1840020333
Rockville,Maryland,Montgomery,39.0834,-77.1553,1840005849
Spring,Texas,Harris,30.0613,-95.383,1840019615
Delray Beach,Florida,Palm Beach,26.455,-80.0905,1840015123
Watsonville,California,Santa Cruz,36.9206,-121.7708,1840021581
Mount Vernon,Washington,Skagit,48.4203,-122.3115,1840019774
Palatine,Illinois,Cook,42.118,-88.043,1840011311
Victoria,Texas,Victoria,28.8287,-96.9849,1840023044
Skokie,Illinois,Cook,42.036,-87.74,1840011321
Morristown,Tennessee,Hamblen,36.2043,-83.3001,1840014467
Sammamish,Washington,King,47.6017,-122.0416,1840021115
Union City,New Jersey,Hudson,40.7675,-74.0323,1840001034
Queen Creek,Arizona,Maricopa,33.2454,-111.6173,1840021944
Alpharetta,Georgia,Fulton,34.0704,-84.2738,1840013659
Lima,Ohio,Allen,40.741,-84.112,1840002785
Novi,Michigan,Oakland,42.4786,-83.4893,1840002423
Great Falls,Montana,Cascade,47.5022,-111.2996,1840019839
Ames,Iowa,Story,42.0256,-93.6217,1840007019
Juana Díaz,Puerto Rico,Juana Díaz,18.0532,-66.5044,1630023583
Malden,Massachusetts,Middlesex,42.4305,-71.0576,1840000430
Dundalk,Maryland,Baltimore,39.2704,-76.4942,1840005681
Albany,Oregon,Linn,44.6272,-123.0965,1840018605
Castro Valley,California,Alameda,37.7088,-122.0626,1840017620
Dalton,Georgia,Whitfield,34.769,-84.972,1840014651
Lynwood,California,Los Angeles,33.924,-118.2016,1840020492
Pflugerville,Texas,Travis,30.4515,-97.6018,1840020892
Sebring,Florida,Highlands,27.477,-81.453,1840015986
Kenner,Louisiana,Jefferson,30.0109,-90.2549,1840015047
Port Charlotte,Florida,Charlotte,26.9918,-82.114,1840014200
Waltham,Massachusetts,Middlesex,42.3889,-71.2423,1840000428
Commerce City,Colorado,Adams,39.8641,-104.843,1840018785
Brentwood,California,Contra Costa,37.9356,-121.719,1840018904
North Little Rock,Arkansas,Pulaski,34.7807,-92.2371,1840014632
South San Francisco,California,San Mateo,37.6538,-122.4196,1840021552
Bellevue,Nebraska,Sarpy,41.1485,-95.939,1840007142
Burnsville,Minnesota,Dakota,44.7648,-93.2793,1840006766
Greenwood,Indiana,Johnson,39.6019,-86.1073,1840007332
Rowlett,Texas,Dallas,32.9155,-96.5489,1840020711
Laguna Niguel,California,Orange,33.5275,-117.705,1840020589
Bozeman,Montana,Gallatin,45.6833,-111.0558,1840018509
Port Orange,Florida,Volusia,29.1085,-81.0137,1840015077
Reston,Virginia,Fairfax,38.9497,-77.3461,1840006025
San Clemente,California,Orange,33.4499,-117.6102,1840021962
Caldwell,Idaho,Canyon,43.6453,-116.6594,1840018641
Coon Rapids,Minnesota,Anoka,45.1755,-93.3094,1840006714
Millcreek,Utah,Salt Lake,40.6892,-111.8292,1840018744
Eden Prairie,Minnesota,Hennepin,44.8488,-93.4595,1840007821
Parkersburg,West Virginia,Wood,39.2623,-81.542,1840005786
Hamilton,Ohio,Butler,39.3939,-84.5653,1840003803
Moore,Oklahoma,Cleveland,35.3293,-97.4757,1840020449
Lakewood,Washington,Pierce,47.1628,-122.5299,1840019860
Bay City,Michigan,Bay,43.5902,-83.8887,1840002583
Bossier City,Louisiana,Bossier,32.5224,-93.6668,1840013790
Council Bluffs,Iowa,Pottawattamie,41.2369,-95.8516,1840007117
Huntersville,North Carolina,Mecklenburg,35.406,-80.8716,1840016349
Taylor,Michigan,Wayne,42.226,-83.2688,1840003965
Hendersonville,Tennessee,Sumner,36.3063,-86.5997,1840014419
Sanford,Florida,Seminole,28.7891,-81.2757,1840015958
La Habra,California,Orange,33.9282,-117.9515,1840020585
Horizon West,Florida,Orange,28.4417,-81.6146,1840038926
Dearborn Heights,Michigan,Wayne,42.3164,-83.2769,1840003970
St. Cloud,Florida,Osceola,28.2363,-81.2779,1840015971
Pontiac,Michigan,Oakland,42.6493,-83.2878,1840002427
Richland,Washington,Benton,46.2824,-119.2939,1840019889
Marietta,Georgia,Cobb,33.9533,-84.5422,1840015633
Florence-Graham,California,Los Angeles,33.9682,-118.2447,1840037057
Springfield,Oregon,Lane,44.0538,-122.9811,1840021263
Encinitas,California,San Diego,33.0492,-117.261,1840020619
Wellington,Florida,Palm Beach,26.6461,-80.2699,1840018311
Palm Harbor,Florida,Pinellas,28.0847,-82.7481,1840014143
Montebello,California,Los Angeles,34.0155,-118.1108,1840020499
Woodland,California,Yolo,38.6712,-121.75,1840021485
Bristol,Connecticut,Naugatuck Valley,41.6812,-72.9407,1840004772
Jupiter,Florida,Palm Beach,26.92,-80.1128,1840017255
La Mesa,California,San Diego,32.7703,-117.0204,1840020625
Pico Rivera,California,Los Angeles,33.9901,-118.0888,1840020506
San Rafael,California,Marin,37.9905,-122.5221,1840021513
Meriden,Connecticut,South Central Connecticut,41.5369,-72.7946,1840004848
Euless,Texas,Tarrant,32.8508,-97.08,1840020693
Parker,Colorado,Douglas,39.5084,-104.7753,1840022454
Revere,Massachusetts,Suffolk,42.4189,-71.004,1840000457
Stonecrest,Georgia,DeKalb,33.6842,-84.1372,1840029466
Chapel Hill,North Carolina,Orange,35.9271,-79.0391,1840016152
White Plains,New York,Westchester,41.022,-73.7547,1840003477
Gardena,California,Los Angeles,33.8943,-118.3072,1840020482
Palm Beach Gardens,Florida,Palm Beach,26.8466,-80.1679,1840015125
Taunton,Massachusetts,Bristol,41.9036,-71.0943,1840003220
Monterey Park,California,Los Angeles,34.0497,-118.1326,1840020500
West Allis,Wisconsin,Milwaukee,43.0068,-88.0296,1840003034
Santee,California,San Diego,32.8554,-116.9851,1840021992
North Miami,Florida,Miami-Dade,25.9008,-80.1686,1840015154
Blue Springs,Missouri,Jackson,39.0124,-94.2721,1840007396
Des Plaines,Illinois,Cook,42.0345,-87.9008,1840007032
Kokomo,Indiana,Howard,40.464,-86.1277,1840013844
Petaluma,California,Sonoma,38.2423,-122.6266,1840020244
Shoreline,Washington,King,47.7564,-122.3426,1840021118
Medford,Massachusetts,Middlesex,42.4234,-71.1087,1840000431
Taylorsville,Utah,Salt Lake,40.6569,-111.9493,1840021387
Wylie,Texas,Collin,33.0362,-96.5161,1840022018
Cupertino,California,Santa Clara,37.3168,-122.0466,1840018950
The Hammocks,Florida,Miami-Dade,25.67,-80.4482,1840029009
Margate,Florida,Broward,26.2466,-80.2119,1840015999
Carson City,Nevada,Carson City,39.1511,-119.7476,1840003826
Hoboken,New Jersey,Hudson,40.7452,-74.0281,1840003599
Madison,Alabama,Madison,34.7114,-86.7626,1840015524
St. Clair Shores,Michigan,Macomb,42.4925,-82.8961,1840003093
St. Peters,Missouri,St. Charles,38.7825,-90.6061,1840009721
Midwest City,Oklahoma,Oklahoma,35.463,-97.371,1840020425
Severn,Maryland,Anne Arundel,39.1355,-76.6956,1840005925
Lake Havasu City,Arizona,Mohave,34.5006,-114.3113,1840021044
Lenexa,Kansas,Johnson,38.9609,-94.8018,1840001639
Orland Park,Illinois,Cook,41.6075,-87.8619,1840011310
Royal Oak,Michigan,Oakland,42.5084,-83.1539,1840002430
Bowie,Maryland,Prince George's,38.9549,-76.7406,1840005970
Decatur,Alabama,Morgan,34.5731,-86.9905,1840001403
Bel Air South,Maryland,Harford,39.5022,-76.3113,1840073592
Towson,Maryland,Baltimore,39.3944,-76.619,1840005695
Casa Grande,Arizona,Pinal,32.9069,-111.7624,1840019364
Coconut Creek,Florida,Broward,26.2803,-80.1842,1840015132
Kettering,Ohio,Montgomery,39.6956,-84.1494,1840003783
Herriman,Utah,Salt Lake,40.4899,-112.017,1840020155
Brookhaven,Georgia,DeKalb,33.8743,-84.3314,1840029224
Oak Lawn,Illinois,Cook,41.7139,-87.7528,1840011306
Lacey,Washington,Thurston,47.0462,-122.7933,1840019866
Bartlett,Tennessee,Shelby,35.2337,-89.8195,1840013472
Highland,California,San Bernardino,34.1113,-117.165,1840020405
Kannapolis,North Carolina,Cabarrus,35.4764,-80.6408,1840014560
Fountainebleau,Florida,Miami-Dade,25.7723,-80.346,1840028983
Fountain Valley,California,Orange,33.7105,-117.9514,1840020575
Bentonville,Arkansas,Benton,36.3547,-94.2305,1840013319
Bradenton,Florida,Manatee,27.4901,-82.5757,1840014173
Smyrna,Georgia,Cobb,33.8633,-84.5168,1840015634
Sarasota,Florida,Sarasota,27.3387,-82.5432,1840015988
Apopka,Florida,Orange,28.7015,-81.5316,1840014093
National City,California,San Diego,32.6654,-117.0983,1840020622
DeSoto,Texas,Dallas,32.5992,-96.8633,1840019441
Berwyn,Illinois,Cook,41.8433,-87.7909,1840007027
New Brunswick,New Jersey,Middlesex,40.487,-74.445,1840001339
Apple Valley,Minnesota,Dakota,44.7457,-93.2004,1840006768
Mount Prospect,Illinois,Cook,42.0641,-87.9375,1840011300
Arcadia,California,Los Angeles,34.1342,-118.0373,1840019223
Southaven,Mississippi,DeSoto,34.9514,-89.9786,1840015519
Tigard,Oregon,Washington,45.4237,-122.7845,1840021206
Perth Amboy,New Jersey,Middlesex,40.5202,-74.2724,1840001340
Chicopee,Massachusetts,Hampden,42.1764,-72.5719,1840000462
South Whittier,California,Los Angeles,33.9336,-118.0312,1840019209
West Haven,Connecticut,South Central Connecticut,41.2739,-72.9672,1840004852
Smyrna,Tennessee,Rutherford,35.9687,-86.5264,1840017758
Tinley Park,Illinois,Cook,41.567,-87.8049,1840011331
Hacienda Heights,California,Los Angeles,33.997,-117.9727,1840017921
Beaumont,California,Riverside,33.9076,-116.9766,1840019298
San Jacinto,California,Riverside,33.797,-116.9916,1840021936
Plainfield,New Jersey,Union,40.6154,-74.4157,1840001090
West Sacramento,California,Yolo,38.5557,-121.5505,1840021483
Marana,Arizona,Pima,32.4355,-111.1558,1840023057
Yucaipa,California,San Bernardino,34.0336,-117.0429,1840021732
Peabody,Massachusetts,Essex,42.5335,-70.9725,1840000414
Rocky Mount,North Carolina,Nash,35.9685,-77.804,1840014490
Texas City,Texas,Galveston,29.4154,-94.9682,1840022234
Kentwood,Michigan,Kent,42.8852,-85.5926,1840002930
Manhattan,Kansas,Riley,39.1886,-96.6048,1840001589
Colton,California,San Bernardino,34.0538,-117.3255,1840019120
Aspen Hill,Maryland,Montgomery,39.0927,-77.0826,1840005825
Diamond Bar,California,Los Angeles,33.9992,-117.8161,1840019244
Huntington Park,California,Los Angeles,33.98,-118.2167,1840019235
Wheaton,Illinois,DuPage,41.8561,-88.1085,1840010166
Pinellas Park,Florida,Pinellas,27.8589,-82.7078,1840015112
Aloha,Oregon,Washington,45.492,-122.8725,1840017414
Oak Park,Illinois,Cook,41.8872,-87.7899,1840011307
Minnetonka,Minnesota,Hennepin,44.9322,-93.4598,1840007831
Twin Falls,Idaho,Twin Falls,42.5645,-114.4613,1840021301
Edina,Minnesota,Hennepin,44.8914,-93.3602,1840007822
Westchester,Florida,Miami-Dade,25.7471,-80.3523,1840014241
Methuen Town,Massachusetts,Essex,42.734,-71.1889,1840031195
Normal,Illinois,McLean,40.5217,-88.9884,1840009401
Elyria,Ohio,Lorain,41.376,-82.106,1840000643
Grand Island,Nebraska,Hall,40.9218,-98.3586,1840000956
Novato,California,Marin,38.092,-122.5575,1840020260
Paramount,California,Los Angeles,33.8977,-118.1651,1840020504
Kyle,Texas,Hays,29.9932,-97.8852,1840020907
Placentia,California,Orange,33.8807,-117.8553,1840020583
Wheaton,Maryland,Montgomery,39.0492,-77.0573,1840031295
Kendale Lakes,Florida,Miami-Dade,25.7081,-80.4078,1840029045
Cathedral City,California,Riverside,33.8362,-116.4642,1840019293
Florissant,Missouri,St. Louis,38.7996,-90.3269,1840008586
Catalina Foothills,Arizona,Pima,32.3046,-110.8838,1840018110
West New York,New Jersey,Hudson,40.7857,-74.0094,1840001035
Lincoln,California,Placer,38.8774,-121.2937,1840020231
Dunwoody,Georgia,DeKalb,33.9418,-84.3122,1840022929
Levittown,New York,Nassau,40.7241,-73.5125,1840005270
Palm Desert,California,Riverside,33.7378,-116.3695,1840020555
Mooresville,North Carolina,Iredell,35.5847,-80.8266,1840016215
Little Elm,Texas,Denton,33.1858,-96.9295,1840020640
Glendora,California,Los Angeles,34.1449,-117.8467,1840020484
Burien,Washington,King,47.4762,-122.3394,1840018420
Aliso Viejo,California,Orange,33.5792,-117.7289,1840019321
Summerville,South Carolina,Dorchester,33.0016,-80.1799,1840016886
Collierville,Tennessee,Shelby,35.047,-89.6987,1840016403
Tamiami,Florida,Miami-Dade,25.7556,-80.4016,1840029085
Wake Forest,North Carolina,Wake,35.9632,-78.514,1840016199
Hoffman Estates,Illinois,Cook,42.064,-88.1468,1840011263
Westfield,Indiana,Hamilton,40.0341,-86.1529,1840010500
Columbus,Indiana,Bartholomew,39.2093,-85.9183,1840013714
Troy,New York,Rensselaer,42.7354,-73.6751,1840003087
Country Club,Florida,Miami-Dade,25.9407,-80.3102,1840029029
Burleson,Texas,Johnson,32.517,-97.3344,1840019467
East Honolulu,Hawaii,Honolulu,21.2975,-157.7211,1840039181
Levittown,Pennsylvania,Bucks,40.1533,-74.8531,1840005408
Mishawaka,Indiana,St. Joseph,41.6742,-86.1666,1840014695
Grapevine,Texas,Tarrant,32.9343,-97.0742,1840020697
Cuyahoga Falls,Ohio,Summit,41.1641,-81.5207,1840000795
Delano,California,Kern,35.7662,-119.2635,1840019151
Enid,Oklahoma,Garfield,36.4063,-97.87,1840020373
Milford city ,Connecticut,South Central Connecticut,41.2255,-73.0625,1840028605
El Dorado Hills,California,El Dorado,38.675,-121.049,1840017565
Rosemead,California,Los Angeles,34.0689,-118.0823,1840020495
McLean,Virginia,Fairfax,38.9436,-77.1943,1840006018
Lakewood,Ohio,Cuyahoga,41.4822,-81.8008,1840000608
Jeffersonville,Indiana,Clark,38.3376,-85.7026,1840008642
Draper,Utah,Salt Lake,40.4957,-111.8605,1840018747
Covina,California,Los Angeles,34.0903,-117.8818,1840019241
Murray,Utah,Salt Lake,40.6498,-111.8874,1840020159
Downers Grove,Illinois,DuPage,41.7949,-88.0172,1840011404
Rockwall,Texas,Rockwall,32.9169,-96.4374,1840020717
Chesterfield,Missouri,St. Louis,38.6589,-90.5803,1840007446
St. Louis Park,Minnesota,Hennepin,44.9488,-93.3649,1840008935
Florin,California,Sacramento,38.4832,-121.4043,1840017581
Cypress,California,Orange,33.8171,-118.0386,1840019327
Eagle Mountain,Utah,Utah,40.3137,-112.0114,1840018757
North Bethesda,Maryland,Montgomery,39.0393,-77.1191,1840031494
Azusa,California,Los Angeles,34.1386,-117.9124,1840019226
Lawrence,Indiana,Marion,39.8674,-85.9904,1840008434
Coral Gables,Florida,Miami-Dade,25.7037,-80.2715,1840015147
Everett,Massachusetts,Middlesex,42.4064,-71.0545,1840000425
Bedford,Texas,Tarrant,32.8464,-97.135,1840019424
Antelope,California,Sacramento,38.7153,-121.361,1840022490
Dublin,Ohio,Franklin,40.1112,-83.1454,1840008389
Portage,Michigan,Kalamazoo,42.2,-85.5906,1840003183
Biloxi,Mississippi,Harrison,30.4426,-88.9514,1840013948
Titusville,Florida,Brevard,28.5727,-80.8193,1840015962
Euclid,Ohio,Cuyahoga,41.5903,-81.5188,1840000600
Ceres,California,Stanislaus,37.5952,-120.962,1840018910
University,Florida,Hillsborough,28.0771,-82.4335,1840073852
Stillwater,Oklahoma,Payne,36.1317,-97.0742,1840021675
Leesburg,Virginia,Loudoun,39.1057,-77.5544,1840005872
Bothell,Washington,King,47.7735,-122.2044,1840018419
Tuckahoe,Virginia,Henrico,37.5878,-77.5858,1840006395
Cedar Hill,Texas,Dallas,32.581,-96.9591,1840019433
Poway,California,San Diego,32.9871,-117.0201,1840020624
Cerritos,California,Los Angeles,33.8678,-118.0686,1840019215
Hilo,Hawaii,Hawaii,19.6883,-155.0863,1840023193
Niagara Falls,New York,Niagara,43.0921,-79.0147,1840000371
Fort Pierce,Florida,St. Lucie,27.4255,-80.3431,1840014178
San Luis Obispo,California,San Luis Obispo,35.2669,-120.669,1840021734
Minot,North Dakota,Ward,48.2375,-101.278,1840000053
North Highlands,California,Sacramento,38.6713,-121.3721,1840018841
Ocoee,Florida,Orange,28.5796,-81.5332,1840015098
Roswell,New Mexico,Chaves,33.373,-104.5294,1840020549
Wilson,North Carolina,Wilson,35.7311,-77.9284,1840015383
Wauwatosa,Wisconsin,Milwaukee,43.0616,-88.0347,1840003033
Glenview,Illinois,Cook,42.0825,-87.8214,1840011280
Middletown,Connecticut,Lower Connecticut River Valley,41.5476,-72.6549,1840004844
Oro Valley,Arizona,Pima,32.4208,-110.9767,1840023058
Brea,California,Orange,33.9254,-117.8655,1840019323
Rancho Santa Margarita,California,Orange,33.6318,-117.5988,1840020584
Roseville,Michigan,Macomb,42.5074,-82.9369,1840003092
Mentor,Ohio,Lake,41.6893,-81.3362,1840000539
Winter Garden,Florida,Orange,28.5421,-81.5967,1840015965
Newark,California,Alameda,37.5201,-122.0307,1840020295
East Providence,Rhode Island,Providence,41.8065,-71.3565,1840003288
Goose Creek,South Carolina,Berkeley,32.9927,-80.0055,1840013761
La Mirada,California,Los Angeles,33.9025,-118.0093,1840020512
Huntsville,Texas,Walker,30.7009,-95.5567,1840019565
Rowland Heights,California,Los Angeles,33.9716,-117.8912,1840019211
Beavercreek,Ohio,Greene,39.731,-84.0624,1840007312
Los Banos,California,Merced,37.063,-120.8406,1840020312
Prescott,Arizona,Yavapai,34.5849,-112.4473,1840020436
Gallatin,Tennessee,Sumner,36.3782,-86.4698,1840013295
Olive Branch,Mississippi,DeSoto,34.961,-89.8469,1840014641
Attleboro,Massachusetts,Bristol,41.9311,-71.295,1840000496
Salina,Kansas,Saline,38.8136,-97.6143,1840001647
Farmington,New Mexico,San Juan,36.7555,-108.1823,1840020349
Whitney,Nevada,Clark,36.1008,-115.0379,1840033834
Potomac,Maryland,Montgomery,39.0141,-77.1943,1840005837
Urbandale,Iowa,Polk,41.639,-93.7812,1840010184
Strongsville,Ohio,Cuyahoga,41.3128,-81.8313,1840003415
Pahrump,Nevada,Nye,36.2235,-115.9974,1840018821
Hackensack,New Jersey,Bergen,40.8891,-74.0462,1840003556
Wentzville,Missouri,St. Charles,38.8153,-90.8669,1840010717
Plainfield,Illinois,Will,41.6207,-88.2253,1840011495
Haltom City,Texas,Tarrant,32.8176,-97.2707,1840020698
Altamonte Springs,Florida,Seminole,28.6615,-81.3953,1840014072
Keller,Texas,Tarrant,32.9335,-97.2256,1840019428
Odenton,Maryland,Anne Arundel,39.0661,-76.6938,1840005912
Ashburn,Virginia,Loudoun,39.0277,-77.4714,1840024495
Elmhurst,Illinois,DuPage,41.8973,-87.9432,1840008142
East Lansing,Michigan,Ingham,42.748,-84.4836,1840003101
Brentwood,Tennessee,Williamson,35.9918,-86.7758,1840013381
Sayreville,New Jersey,Middlesex,40.4656,-74.3237,1840001332
Sierra Vista,Arizona,Cochise,31.563,-110.3153,1840022103
Morgan Hill,California,Santa Clara,37.1325,-121.6419,1840020331
Bountiful,Utah,Davis,40.8721,-111.8647,1840018737
Littleton,Colorado,Arapahoe,39.5915,-105.0188,1840020213
Pearl City,Hawaii,Honolulu,21.4031,-157.9566,1840023251
Lake Ridge,Virginia,Prince William,38.6847,-77.3066,1840006099
Shakopee,Minnesota,Scott,44.7745,-93.4772,1840008955
Palm Springs,California,Riverside,33.8017,-116.5382,1840020556
Clermont,Florida,Lake,28.5325,-81.7208,1840015080
Riverton,Utah,Salt Lake,40.5176,-111.9636,1840020157
The Colony,Texas,Denton,33.0925,-96.8976,1840022005
Mankato,Minnesota,Blue Earth,44.1715,-93.9772,1840008975
West Lafayette,Indiana,Tippecanoe,40.4432,-86.9238,1840010430
Moorhead,Minnesota,Clay,46.8673,-96.7461,1840007731
Cleveland Heights,Ohio,Cuyahoga,41.5113,-81.5636,1840000597
North Lauderdale,Florida,Broward,26.2113,-80.2209,1840015138
Fairfield,Ohio,Butler,39.3301,-84.5409,1840003802
Sicklerville,New Jersey,Camden,39.7452,-74.9934,1840033409
Fond du Lac,Wisconsin,Fond du Lac,43.7718,-88.4397,1840002603
Cutler Bay,Florida,Miami-Dade,25.5765,-80.3356,1840017276
Rohnert Park,California,Sonoma,38.3479,-122.6965,1840020243
Oakley,California,Contra Costa,37.9929,-121.6952,1840020279
Salem,Massachusetts,Essex,42.5129,-70.9021,1840000410
Concord,New Hampshire,Merrimack,43.2305,-71.5595,1840002747
Wilkes-Barre,Pennsylvania,Luzerne,41.2469,-75.876,1840000777
North Fort Myers,Florida,Lee,26.7244,-81.8485,1840014222
El Centro,California,Imperial,32.7865,-115.5595,1840020630
Freeport,New York,Nassau,40.6515,-73.585,1840005288
Saratoga Springs,Utah,Utah,40.345,-111.9154,1840021397
Oakland Park,Florida,Broward,26.178,-80.1528,1840015139
Columbia,Tennessee,Maury,35.6238,-87.0484,1840014518
Greenacres,Florida,Palm Beach,26.627,-80.1371,1840036057
Hicksville,New York,Nassau,40.7637,-73.5245,1840005266
Lompoc,California,Santa Barbara,34.6618,-120.4714,1840020468
Trujillo Alto,Puerto Rico,Trujillo Alto,18.3599,-66.0096,1630023656
Lombard,Illinois,DuPage,41.8741,-88.0157,1840011402
Spanish Fork,Utah,Utah,40.1101,-111.6405,1840021398
Linden,New Jersey,Union,40.6251,-74.2383,1840001094
Waxahachie,Texas,Ellis,32.4035,-96.8446,1840022083
Pittsfield,Massachusetts,Berkshire,42.4517,-73.2605,1840003116
Channelview,Texas,Harris,29.7914,-95.1144,1840018253
Ormond Beach,Florida,Volusia,29.2985,-81.1014,1840015076
Newnan,Georgia,Coweta,33.3767,-84.7761,1840014833
Woodbridge,Virginia,Prince William,38.6409,-77.258,1840006106
Holly Springs,North Carolina,Wake,35.6526,-78.8399,1840016193
Danville,California,Contra Costa,37.8121,-121.9698,1840021532
Burke,Virginia,Fairfax,38.7773,-77.2633,1840006014
Huber Heights,Ohio,Montgomery,39.8595,-84.113,1840003782
West Babylon,New York,Suffolk,40.7129,-73.3585,1840005109
Delaware,Ohio,Delaware,40.2851,-83.0741,1840007237
Schertz,Texas,Bexar,29.565,-98.2535,1840022213
North Miami Beach,Florida,Miami-Dade,25.9302,-80.1659,1840015155
Woonsocket,Rhode Island,Providence,42.001,-71.4993,1840003290
Hollister,California,San Benito,36.8555,-121.3986,1840020354
Campbell,California,Santa Clara,37.2802,-121.9539,1840018949
Buffalo Grove,Illinois,Lake,42.1675,-87.9615,1840010143
Edmonds,Washington,Snohomish,47.8115,-122.3533,1840037645
Catonsville,Maryland,Baltimore,39.2646,-76.7424,1840005679
Manassas,Virginia,Manassas,38.7479,-77.4838,1840003839
Vineyard,California,Sacramento,38.474,-121.324,1840018846
Puyallup,Washington,Pierce,47.1793,-122.2902,1840019859
San Bruno,California,San Mateo,37.6256,-122.4313,1840021549
Coachella,California,Riverside,33.6905,-116.143,1840019294
Jefferson City,Missouri,Cole,38.5676,-92.1759,1840008615
French Valley,California,Riverside,33.5999,-117.1069,1840075867
Midland,Michigan,Midland,43.6241,-84.2319,1840002660
Beverly,Massachusetts,Essex,42.5681,-70.8627,1840000411
Mableton,Georgia,Cobb,33.8133,-84.5655,1840013690
Danville,Virginia,Danville,36.5831,-79.4088,1840003878
Moline,Illinois,Rock Island,41.4821,-90.492,1840008181
Bullhead City,Arizona,Mohave,35.1205,-114.5461,1840019748
Peachtree Corners,Georgia,Gwinnett,33.967,-84.232,1840029447
Linton Hall,Virginia,Prince William,38.7551,-77.575,1840006100
Coppell,Texas,Dallas,32.9639,-96.9903,1840019439
Annandale,Virginia,Fairfax,38.8324,-77.196,1840006011
Lebanon,Tennessee,Wilson,36.204,-86.3481,1840014466
Altadena,California,Los Angeles,34.1927,-118.1346,1840017918
Land O' Lakes,Florida,Pasco,28.2075,-82.4476,1840014120
Grove City,Ohio,Franklin,39.8654,-83.069,1840007264
Belleville,Illinois,St. Clair,38.5164,-89.99,1840007486
Post Falls,Idaho,Kootenai,47.7213,-116.9384,1840019811
Marion,Iowa,Linn,42.0451,-91.585,1840008099
Fitchburg,Massachusetts,Worcester,42.5912,-71.8156,1840000435
Brookfield,Wisconsin,Waukesha,43.064,-88.1231,1840003012
Coram,New York,Suffolk,40.8812,-73.0059,1840005032
Princeton,Florida,Miami-Dade,25.5396,-80.3971,1840014248
Weslaco,Texas,Hidalgo,26.1599,-97.9877,1840022258
Shelton,Connecticut,Naugatuck Valley,41.306,-73.1383,1840004840
Marlborough,Massachusetts,Middlesex,42.3494,-71.5468,1840000427
Milton,Georgia,Fulton,34.1353,-84.3139,1840014738
Rancho Palos Verdes,California,Los Angeles,33.7554,-118.3634,1840020508
Hallandale Beach,Florida,Broward,25.9854,-80.1423,1840014237
Woburn,Massachusetts,Middlesex,42.4869,-71.1543,1840003124
Brighton,Colorado,Adams,39.9716,-104.7963,1840018784
Indian Trail,North Carolina,Union,35.0699,-80.6452,1840016453
Reynoldsburg,Ohio,Franklin,39.9588,-82.7943,1840009473
Romeoville,Illinois,Will,41.6318,-88.0997,1840011489
Maplewood,Minnesota,Ramsey,44.9842,-93.0247,1840008937
Lynnwood,Washington,Snohomish,47.8284,-122.3033,1840019788
Lancaster,Ohio,Fairfield,39.7248,-82.6049,1840003781
Covington,Kentucky,Kenton,39.0334,-84.5166,1840014263
Mount Juliet,Tennessee,Wilson,36.199,-86.5115,1840014465
Friendswood,Texas,Galveston,29.511,-95.1981,1840020969
Germantown,Tennessee,Shelby,35.0829,-89.7824,1840013473
Lancaster,Texas,Dallas,32.5922,-96.7739,1840020714
Annapolis,Maryland,Anne Arundel,38.9706,-76.5047,1840005928
Meadow Woods,Florida,Orange,28.3698,-81.3467,1840029057
Westfield,Massachusetts,Hampden,42.1382,-72.7561,1840000463
Essex,Maryland,Baltimore,39.3021,-76.4449,1840005675
Cedar Falls,Iowa,Black Hawk,42.5195,-92.4536,1840006946
Kearny,New Jersey,Hudson,40.7528,-74.1202,1840003601
Bartlett,Illinois,DuPage,41.9804,-88.2071,1840011246
Woodlawn,Maryland,Baltimore,39.3054,-76.7489,1840005697
DeKalb,Illinois,DeKalb,41.9314,-88.7481,1840007033
Pine Bluff,Arkansas,Jefferson,34.2116,-92.0173,1840014699
Crystal Lake,Illinois,McHenry,42.2333,-88.3351,1840006969
New Berlin,Wisconsin,Waukesha,42.9726,-88.1291,1840003025
Lake Oswego,Oregon,Clackamas,45.4129,-122.7004,1840019955
Findlay,Ohio,Hancock,41.0469,-83.6379,1840000886
Valley Stream,New York,Nassau,40.6647,-73.7043,1840005331
The Acreage,Florida,Palm Beach,26.774,-80.2779,1840026061
Cottage Grove,Minnesota,Washington,44.8161,-92.9274,1840006735
Cape Girardeau,Missouri,Cape Girardeau,37.3109,-89.5597,1840007598
Plant City,Florida,Hillsborough,28.014,-82.1201,1840015115
Culver City,California,Los Angeles,34.0058,-118.3968,1840019243
Oviedo,Florida,Seminole,28.658,-81.1872,1840015089
Hurst,Texas,Tarrant,32.8353,-97.1809,1840019427
Hobbs,New Mexico,Lea,32.7281,-103.16,1840020616
Duncanville,Texas,Dallas,32.646,-96.9127,1840019442
Waipahu,Hawaii,Honolulu,21.3859,-158.0101,1840023258
Hutchinson,Kansas,Reno,38.0671,-97.9081,1840001673
DeLand,Florida,Volusia,29.0225,-81.2875,1840015071
Fort Lee,New Jersey,Bergen,40.8509,-73.9713,1840003552
Apache Junction,Arizona,Pinal,33.3985,-111.535,1840019365
Rexburg,Idaho,Madison,43.8226,-111.7919,1840020037
Lincoln Park,Michigan,Wayne,42.2432,-83.1811,1840003984
Lake Stevens,Washington,Snohomish,48.0024,-122.0953,1840019794
Severna Park,Maryland,Anne Arundel,39.087,-76.5687,1840005926
Issaquah,Washington,King,47.5439,-122.0471,1840018422
Rosenberg,Texas,Fort Bend,29.5456,-95.8223,1840020948
Chelsea,Massachusetts,Suffolk,42.3959,-71.0325,1840000456
Lakewood Ranch,Florida,Manatee,27.4185,-82.3948,1840137436
Carol Stream,Illinois,DuPage,41.9181,-88.1307,1840010169
Aventura,Florida,Miami-Dade,25.9566,-80.1371,1840014243
West Fargo,North Dakota,Cass,46.8573,-96.9057,1840001935
Bettendorf,Iowa,Scott,41.5657,-90.4765,1840007079
Park Ridge,Illinois,Cook,42.0125,-87.8436,1840009183
Greer,South Carolina,Greenville,34.933,-82.2313,1840013502
Quincy,Illinois,Adams,39.9336,-91.3799,1840009466
Grants Pass,Oregon,Josephine,42.4333,-123.3317,1840020087
Parkland,Washington,Pierce,47.1417,-122.4376,1840018453
Royal Palm Beach,Florida,Palm Beach,26.7038,-80.2241,1840018309
Warren,Ohio,Trumbull,41.239,-80.8174,1840000652
Streamwood,Illinois,Cook,42.0209,-88.1779,1840011328
Roy,Utah,Weber,41.1714,-112.0485,1840020132
Keizer,Oregon,Marion,45.0028,-123.0243,1840018581
Owasso,Oklahoma,Tulsa,36.2878,-95.8311,1840020385
Navarre,Florida,Santa Rosa,30.4174,-86.8907,1840027017
Peachtree City,Georgia,Fayette,33.3942,-84.571,1840014822
Menomonee Falls,Wisconsin,Waukesha,43.1487,-88.1227,1840003020
La Vergne,Tennessee,Rutherford,36.02,-86.5586,1840014496
Prattville,Alabama,Autauga,32.4597,-86.4573,1840004086
Valrico,Florida,Hillsborough,27.9193,-82.2293,1840028790
San Gabriel,California,Los Angeles,34.0949,-118.099,1840021862
Clinton,Maryland,Prince George's,38.7499,-76.9063,1840005949
Vestavia Hills,Alabama,Jefferson,33.4518,-86.7437,1840015673
Bell Gardens,California,Los Angeles,33.9663,-118.155,1840019229
Security-Widefield,Colorado,El Paso,38.7489,-104.7142,1840074635
Stanton,California,Orange,33.8003,-117.9935,1840021966
Westerville,Ohio,Franklin,40.1241,-82.921,1840003763
Wheeling,Illinois,Cook,42.1308,-87.924,1840011334
Atlantic City,New Jersey,Atlantic,39.3797,-74.4527,1840003798
Phenix City,Alabama,Russell,32.4585,-85.0253,1840006012
Calexico,California,Imperial,32.6849,-115.4944,1840019379
Winter Springs,Florida,Seminole,28.6889,-81.2703,1840015959
Urbana,Illinois,Champaign,40.1107,-88.1973,1840010451
Mechanicsville,Virginia,Hanover,37.6263,-77.3561,1840006340
La Quinta,California,Riverside,33.6536,-116.2785,1840020559
East Point,Georgia,Fulton,33.6696,-84.4701,1840013661
Georgetown,Kentucky,Scott,38.2247,-84.5487,1840013197
Clovis,New Mexico,Curry,34.4376,-103.1923,1840019195
Riviera Beach,Florida,Palm Beach,26.7813,-80.0741,1840015126
Hot Springs,Arkansas,Garland,34.4892,-93.0501,1840014670
Sun City,Arizona,Maricopa,33.6165,-112.2819,1840019311
Adelanto,California,San Bernardino,34.5814,-117.4397,1840019117
Northglenn,Colorado,Adams,39.9108,-104.9783,1840020192
Portage,Indiana,Porter,41.5856,-87.1797,1840009264
Holyoke,Massachusetts,Hampden,42.2125,-72.6411,1840000465
Lewiston,Maine,Androscoggin,44.0915,-70.1681,1840000320
Tupelo,Mississippi,Lee,34.2692,-88.7318,1840015561
Montclair,California,San Bernardino,34.0715,-117.6981,1840020408
Hilton Head Island,South Carolina,Beaufort,32.1896,-80.7499,1840016974
Winchester,Nevada,Clark,36.1365,-115.137,1840033770
Rome,Georgia,Floyd,34.2662,-85.1863,1840014681
Central Islip,New York,Suffolk,40.7836,-73.1945,1840005028
Fuquay-Varina,North Carolina,Wake,35.5953,-78.7778,1840016197
Evans,Georgia,Columbia,33.5619,-82.1351,1840013095
New Albany,Indiana,Floyd,38.309,-85.8234,1840008662
Bartlesville,Oklahoma,Washington,36.7365,-95.9456,1840018977
Monrovia,California,Los Angeles,34.165,-117.9921,1840020498
Pleasant Grove,Utah,Utah,40.3716,-111.7412,1840020173
Carpentersville,Illinois,Kane,42.1227,-88.2896,1840010149
Pacifica,California,San Mateo,37.6113,-122.4782,1840020307
South Miami Heights,Florida,Miami-Dade,25.5886,-80.3862,1840014240
Oregon City,Oregon,Clackamas,45.3418,-122.5924,1840019954
La Puente,California,Los Angeles,34.0323,-117.9533,1840020513
Greenfield,Wisconsin,Milwaukee,42.9619,-88.0052,1840003039
Foothill Farms,California,Sacramento,38.6867,-121.3475,1840017582
Mission Bend,Texas,Fort Bend,29.6948,-95.6658,1840019643
Tooele,Utah,Tooele,40.5393,-112.3082,1840021356
Estero,Florida,Lee,26.4276,-81.7951,1840013129
Midlothian,Texas,Ellis,32.4669,-96.989,1840020757
Cedar City,Utah,Iron,37.6834,-113.0956,1840018895
Leavenworth,Kansas,Leavenworth,39.3239,-94.924,1840001591
Copperas Cove,Texas,Coryell,31.1192,-97.914,1840019538
Kearns,Utah,Salt Lake,40.6519,-112.0095,1840017500
Tucker,Georgia,DeKalb,33.8436,-84.2024,1840013701
Wildomar,California,Riverside,33.6173,-117.2582,1840022902
Martinez,California,Contra Costa,37.9985,-122.1161,1840020278
Hanover Park,Illinois,DuPage,41.9818,-88.1446,1840011251
Muskogee,Oklahoma,Muskogee,35.7432,-95.3567,1840020401
Oakton,Virginia,Fairfax,38.8887,-77.3016,1840006023
Rock Island,Illinois,Rock Island,41.4699,-90.5827,1840009233
Richfield,Minnesota,Hennepin,44.8763,-93.2829,1840008930
La Presa,California,San Diego,32.711,-117.0027,1840018023
South Valley,New Mexico,Bernalillo,35.0093,-106.6819,1840033724
Kiryas Joel,New York,Orange,41.3411,-74.1667,1840004872
Hilliard,Ohio,Franklin,40.0353,-83.1578,1840007265
Beloit,Wisconsin,Rock,42.523,-89.0184,1840002471
Claremont,California,Los Angeles,34.1259,-117.7153,1840019216
Oak Creek,Wisconsin,Milwaukee,42.8803,-87.9009,1840003047
Sun Prairie,Wisconsin,Dane,43.1825,-89.2362,1840002902
Elmont,New York,Nassau,40.7033,-73.7078,1840005226
Commack,New York,Suffolk,40.8435,-73.2833,1840005030
Merrillville,Indiana,Lake,41.4728,-87.3196,1840009261
Upper Arlington,Ohio,Franklin,40.0272,-83.0704,1840003762
Woodstock,Georgia,Cherokee,34.1026,-84.5091,1840015574
Douglasville,Georgia,Douglas,33.7384,-84.7054,1840014804
Farmers Branch,Texas,Dallas,32.9272,-96.8804,1840020706
Socorro,Texas,El Paso,31.6383,-106.2601,1840022136
La Porte,Texas,Harris,29.6689,-95.0484,1840020932
Dunedin,Florida,Pinellas,28.0329,-82.7862,1840014144
North Ridgeville,Ohio,Lorain,41.3852,-82.0195,1840000645
Olney,Maryland,Montgomery,39.1465,-77.0715,1840005836
San Luis,Arizona,Yuma,32.4911,-114.7089,1840021996
Richmond West,Florida,Miami-Dade,25.6105,-80.4297,1840073270
Randallstown,Maryland,Baltimore,39.3723,-76.8024,1840005688
Moorpark,California,Ventura,34.2861,-118.8768,1840020472
Benton,Arkansas,Saline,34.5776,-92.5713,1840013572
Kaneohe,Hawaii,Honolulu,21.4062,-157.7904,1840029498
Lauderdale Lakes,Florida,Broward,26.1682,-80.2017,1840015145
Windsor,Colorado,Weld,40.469,-104.9198,1840022401
Roseville,Minnesota,Ramsey,45.0155,-93.1545,1840008939
El Mirage,Arizona,Maricopa,33.5905,-112.3271,1840020562
East Meadow,New York,Nassau,40.7197,-73.5604,1840005236
Parkland,Florida,Broward,26.3219,-80.2533,1840015140
Plainfield,Indiana,Hendricks,39.6954,-86.3716,1840010579
Norristown,Pennsylvania,Montgomery,40.1225,-75.3398,1840003705
Inver Grove Heights,Minnesota,Dakota,44.8247,-93.0596,1840007858
Marion,Ohio,Marion,40.5973,-83.1227,1840008332
Franklin,Wisconsin,Milwaukee,42.8854,-88.0104,1840003043
Temple City,California,Los Angeles,34.1022,-118.0579,1840021872
Midvale,Utah,Salt Lake,40.6148,-111.8927,1840020158
Salisbury,North Carolina,Rowan,35.6658,-80.4905,1840015384
Egypt Lake-Leto,Florida,Hillsborough,28.0177,-82.5062,1840073269
San Juan,Texas,Hidalgo,26.1903,-98.152,1840022256
Carrollwood,Florida,Hillsborough,28.0577,-82.5148,1840029026
Owings Mills,Maryland,Baltimore,39.4115,-76.7913,1840005684
Fruit Cove,Florida,St. Johns,30.0972,-81.6175,1840013970
Monroe,North Carolina,Union,35.0063,-80.5596,1840014613
Richmond,Indiana,Wayne,39.8318,-84.8905,1840014176
Cookeville,Tennessee,Putnam,36.1482,-85.5109,1840014470
Richmond,Kentucky,Madison,37.7307,-84.2925,1840014341
Kendall West,Florida,Miami-Dade,25.7065,-80.4388,1840035805
Torrington,Connecticut,Northwest Hills,41.8349,-73.1282,1840004770
Stockbridge,Georgia,Henry,33.5254,-84.2295,1840015707
Springville,Utah,Utah,40.1638,-111.6205,1840021399
Fair Oaks,Virginia,Fairfax,38.8653,-77.3586,1840024568
Addison,Illinois,DuPage,41.9313,-88.0085,1840010171
Oswego,Illinois,Kendall,41.6834,-88.3372,1840011508
Gahanna,Ohio,Franklin,40.0251,-82.8637,1840008390
American Fork,Utah,Utah,40.3783,-111.7953,1840018756
Brunswick,Ohio,Medina,41.2465,-81.8198,1840003485
Hinesville,Georgia,Liberty,31.8248,-81.6137,1840014931
Watertown Town,Massachusetts,Middlesex,42.37,-71.1774,1840031198
Calumet City,Illinois,Cook,41.6134,-87.5505,1840007023
Orangevale,California,Sacramento,38.6881,-121.2209,1840018842
Wildwood,Missouri,St. Louis,38.58,-90.6698,1840010746
Oakville,Missouri,St. Louis,38.4479,-90.3199,1840006121
Chillum,Maryland,Prince George's,38.9666,-76.9791,1840005948
Redmond,Oregon,Deschutes,44.2612,-121.181,1840020003
Fair Lawn,New Jersey,Bergen,40.9359,-74.1177,1840003548
Mason,Ohio,Warren,39.3571,-84.3023,1840008467
West Hollywood,California,Los Angeles,34.0883,-118.3719,1840028098
Graham,Washington,Pierce,47.0322,-122.2827,1840017365
Golden Glades,Florida,Miami-Dade,25.9129,-80.2013,1840029039
Sahuarita,Arizona,Pima,31.9323,-110.9654,1840022102
Prairieville,Louisiana,Ascension,30.3151,-90.9571,1840026029
San Juan Capistrano,California,Orange,33.5008,-117.6544,1840021963
Pueblo West,Colorado,Pueblo,38.3465,-104.7246,1840018860
Timberwood Park,Texas,Bexar,29.6995,-98.4838,1840019651
Oildale,California,Kern,35.4293,-119.0306,1840019137
Butte,Montana,Silver Bow,45.902,-112.6571,1840032850
University Place,Washington,Pierce,47.2147,-122.5461,1840021130
Long Beach,New York,Nassau,40.5887,-73.666,1840000988
Merritt Island,Florida,Brevard,28.3139,-80.6708,1840014076
University City,Missouri,St. Louis,38.6657,-90.3315,1840010739
Northbrook,Illinois,Cook,42.1292,-87.8352,1840011304
Del Rio,Texas,Val Verde,29.3708,-100.8801,1840019607
Canton,Georgia,Cherokee,34.2467,-84.4897,1840014703
Manhattan Beach,California,Los Angeles,33.8894,-118.3967,1840020496
Prosper,Texas,Collin,33.2394,-96.8087,1840022019
Manitowoc,Wisconsin,Manitowoc,44.0991,-87.6812,1840002213
Fairborn,Ohio,Greene,39.801,-84.0094,1840008440
McMinnville,Oregon,Yamhill,45.211,-123.1918,1840019956
Lewiston,Idaho,Nez Perce,46.3934,-116.9933,1840019897
Meridian,Mississippi,Lauderdale,32.3846,-88.6896,1840014891
College Park,Maryland,Prince George's,38.996,-76.9337,1840005971
Valparaiso,Indiana,Porter,41.4783,-87.0506,1840014674
Goshen,Indiana,Elkhart,41.5743,-85.8309,1840013733
Pleasant Hill,California,Contra Costa,37.9539,-122.0759,1840020283
Spanaway,Washington,Pierce,47.0979,-122.4233,1840018451
Stow,Ohio,Summit,41.1765,-81.4344,1840000803
Westmont,California,Los Angeles,33.9417,-118.3018,1840028408
Pikesville,Maryland,Baltimore,39.3893,-76.702,1840005687
South Riding,Virginia,Loudoun,38.912,-77.5132,1840024507
Cooper City,Florida,Broward,26.0463,-80.2862,1840015133
Montgomery Village,Maryland,Montgomery,39.1788,-77.1954,1840005834
Dakota Ridge,Colorado,Jefferson,39.6192,-105.1344,1840038683
Lufkin,Texas,Angelina,31.3217,-94.7277,1840020840
New City,New York,Rockland,41.1542,-73.9912,1840004964
San Dimas,California,Los Angeles,34.1082,-117.809,1840021860
Crown Point,Indiana,Lake,41.4143,-87.3457,1840007091
Westlake,Ohio,Cuyahoga,41.4524,-81.9294,1840003420
Kearney,Nebraska,Buffalo,40.7011,-99.0833,1840000957
Syracuse,Utah,Davis,41.0859,-112.0698,1840021352
Eastpointe,Michigan,Macomb,42.4657,-82.9461,1840002420
Weatherford,Texas,Parker,32.7536,-97.7723,1840022041
Woodridge,Illinois,DuPage,41.737,-88.0409,1840011411
Kingman,Arizona,Mohave,35.217,-114.0105,1840021043
Leawood,Kansas,Johnson,38.9075,-94.6258,1840001638
Cibolo,Texas,Guadalupe,29.5634,-98.2115,1840019639
Deer Park,Texas,Harris,29.6898,-95.1151,1840019621
Englewood,Colorado,Arapahoe,39.6468,-104.9942,1840020211
Walla Walla,Washington,Walla Walla,46.0671,-118.3368,1840021174
Statesboro,Georgia,Bulloch,32.4375,-81.7751,1840015801
Uniondale,New York,Nassau,40.7176,-73.5947,1840005279
Alabaster,Alabama,Shelby,33.2198,-86.8225,1840013756
Kennesaw,Georgia,Cobb,34.026,-84.6177,1840014756
Gadsden,Alabama,Etowah,34.0086,-86.0157,1840006332
Baldwin,New York,Nassau,40.6511,-73.6075,1840005228
Harker Heights,Texas,Bell,31.0572,-97.6446,1840020851
Goldsboro,North Carolina,Wayne,35.3778,-77.9717,1840013432
Ken Caryl,Colorado,Jefferson,39.577,-105.1144,1840028580
Petersburg,Virginia,Petersburg,37.2043,-77.3913,1840003861
Huntington Station,New York,Suffolk,40.8446,-73.405,1840005081
Gillette,Wyoming,Campbell,44.2752,-105.4982,1840019978
Chester,Pennsylvania,Delaware,39.8456,-75.3718,1840000690
West Little River,Florida,Miami-Dade,25.8571,-80.2367,1840029096
Helena,Montana,Lewis and Clark,46.5965,-112.0202,1840019820
Bethel Park,Pennsylvania,Allegheny,40.3238,-80.0364,1840001206
Martinez,Georgia,Columbia,33.5209,-82.0985,1840013747
East Lake,Florida,Pinellas,28.1206,-82.6868,1840028980
Spring Valley,New York,Rockland,41.1151,-74.0486,1840004986
Cottonwood Heights,Utah,Salt Lake,40.6137,-111.8144,1840018746
Cleburne,Texas,Johnson,32.3568,-97.4151,1840019464
Foster City,California,San Mateo,37.5553,-122.2659,1840020302
Canyon Lake,Texas,Comal,29.8761,-98.2611,1840018260
Sherwood,Arkansas,Pulaski,34.8507,-92.2029,1840015511
Clearfield,Utah,Davis,41.103,-112.0238,1840018735
Dana Point,California,Orange,33.4733,-117.6967,1840019328
Rochester,New Hampshire,Strafford,43.299,-70.9787,1840002809
Glendale Heights,Illinois,DuPage,41.9196,-88.0785,1840011406
Kaysville,Utah,Davis,41.029,-111.9456,1840018738
Bell,California,Los Angeles,33.9801,-118.1798,1840019228
Andover,Minnesota,Anoka,45.2571,-93.3265,1840006716
Brooklyn Center,Minnesota,Hennepin,45.0681,-93.3162,1840004022
Desert Hot Springs,California,Riverside,33.955,-116.5429,1840019306
Menlo Park,California,San Mateo,37.4685,-122.1673,1840020305
Los Gatos,California,Santa Clara,37.2304,-121.9562,1840021575
St. Charles,Illinois,Kane,41.9193,-88.3109,1840009190
Pasadena,Maryland,Anne Arundel,39.1552,-76.5537,1840005914
Savage,Minnesota,Scott,44.7545,-93.3632,1840008957
Lathrop,California,San Joaquin,37.809,-121.3131,1840020266
Goleta,California,Santa Barbara,34.4361,-119.8594,1840001783
Des Moines,Washington,King,47.3914,-122.3156,1840018426
Garner,North Carolina,Wake,35.6936,-78.6181,1840016198
Garfield,New Jersey,Bergen,40.8791,-74.1085,1840003554
Fallbrook,California,San Diego,33.3693,-117.2259,1840018019
Florence,Kentucky,Boone,38.9899,-84.6471,1840013161
Aiken,South Carolina,Aiken,33.5303,-81.7271,1840013722
Buenaventura Lakes,Florida,Osceola,28.3349,-81.3539,1840028974
Spring Valley,California,San Diego,32.7317,-116.9766,1840019343
Maryville,Tennessee,Blount,35.7468,-83.9789,1840015380
Hutto,Texas,Williamson,30.5396,-97.544,1840019573
Long Branch,New Jersey,Monmouth,40.2965,-73.9915,1840003673
Massillon,Ohio,Stark,40.7838,-81.5254,1840000965
Wheat Ridge,Colorado,Jefferson,39.7728,-105.1028,1840021431
O'Fallon,Illinois,St. Clair,38.5974,-89.9148,1840008632
Elk Grove Village,Illinois,Cook,42.0064,-87.9921,1840011271
Nacogdoches,Texas,Nacogdoches,31.6134,-94.6528,1840020820
Oak Ridge,Tennessee,Anderson,35.9639,-84.2938,1840014473
North Olmsted,Ohio,Cuyahoga,41.4149,-81.919,1840003400
Fair Oaks,California,Sacramento,38.6504,-121.2496,1840017580
Atwater,California,Merced,37.3529,-120.5959,1840018934
Cornelius,North Carolina,Mecklenburg,35.4724,-80.8813,1840016352
West Odessa,Texas,Ector,31.8389,-102.5003,1840037100
Juneau,Alaska,Juneau,58.4546,-134.1739,1840023306
Duluth,Georgia,Gwinnett,34.0053,-84.1492,1840013675
Beverly Hills,California,Los Angeles,34.0786,-118.4021,1840019231
Opelika,Alabama,Lee,32.6612,-85.3769,1840005210
Milford Mill,Maryland,Baltimore,39.3444,-76.7668,1840031493
Pullman,Washington,Whitman,46.7336,-117.168,1840019864
Erie,Colorado,Weld,40.0404,-105.0399,1840021362
Oceanside,New York,Nassau,40.6328,-73.6364,1840005246
Marrero,Louisiana,Jefferson,29.8871,-90.1126,1840013993
Laramie,Wyoming,Albany,41.3099,-105.6085,1840020096
Carlsbad,New Mexico,Eddy,32.401,-104.2388,1840019444
Pekin,Illinois,Tazewell,40.5678,-89.6251,1840009402
Sun City Center,Florida,Hillsborough,27.715,-82.3569,1840001841
Rome,New York,Oneida,43.226,-75.4909,1840000349
Ithaca,New York,Tompkins,42.4442,-76.5032,1840000442
Seguin,Texas,Guadalupe,29.5891,-97.9676,1840022214
San Pablo,California,Contra Costa,37.9629,-122.3426,1840021529
Dania Beach,Florida,Broward,26.0593,-80.1637,1840015135
Lake Magdalene,Florida,Hillsborough,28.0875,-82.4791,1840029049
West Bend,Wisconsin,Washington,43.4173,-88.1818,1840002829
Bethany,Oregon,Washington,45.5614,-122.837,1840034671
Bangor,Maine,Penobscot,44.8323,-68.7906,1840000238
Naugatuck,Connecticut,Naugatuck Valley,41.489,-73.0518,1840004849
Mundelein,Illinois,Lake,42.2693,-88.0102,1840011175
Nicholasville,Kentucky,Jessamine,37.8906,-84.5668,1840014330
Middle River,Maryland,Baltimore,39.3436,-76.4253,1840005682
Bel Air North,Maryland,Harford,39.5543,-76.3732,1840073591
Fitchburg,Wisconsin,Dane,42.9859,-89.4255,1840002905
New Bern,North Carolina,Craven,35.0955,-77.0723,1840014591
Lakeside,Florida,Clay,30.1356,-81.7674,1840029051
Shawnee,Oklahoma,Pottawatomie,35.3531,-96.9647,1840021785
Centereach,New York,Suffolk,40.8681,-73.0821,1840005026
Eagle,Idaho,Ada,43.7223,-116.3866,1840018642
LaGrange,Georgia,Troup,33.0274,-85.0384,1840029147
Zionsville,Indiana,Boone,39.9897,-86.3182,1840010515
Bluffton,South Carolina,Beaufort,32.2135,-80.9316,1840015799
Orcutt,California,Santa Barbara,34.8691,-120.4222,1840019183
Bay Shore,New York,Suffolk,40.7288,-73.2495,1840005017
Sterling,Virginia,Loudoun,39.0052,-77.405,1840024508
Holladay,Utah,Salt Lake,40.66,-111.8226,1840020156
New Smyrna Beach,Florida,Volusia,29.0249,-80.9652,1840015073
Santa Paula,California,Ventura,34.3545,-119.0656,1840021842
Port Chester,New York,Westchester,41.0051,-73.668,1840004941
Haines City,Florida,Polk,28.1102,-81.6157,1840014136
SeaTac,Washington,King,47.4444,-122.2986,1840021116
Lawndale,California,Los Angeles,33.8884,-118.3531,1840020517
Alamogordo,New Mexico,Otero,32.8837,-105.9625,1840019403
Southlake,Texas,Tarrant,32.9545,-97.1503,1840022048
North Royalton,Ohio,Cuyahoga,41.3138,-81.745,1840003402
Hopkinsville,Kentucky,Christian,36.8381,-87.4775,1840014399
Northport,Alabama,Tuscaloosa,33.2586,-87.5993,1840014819
Bella Vista,Arkansas,Benton,36.4667,-94.2707,1840015287
Laguna Hills,California,Orange,33.5918,-117.6991,1840020588
Springfield,Virginia,Fairfax,38.781,-77.1839,1840006039
Ballwin,Missouri,St. Louis,38.595,-90.55,1840007447
Sanford,North Carolina,Lee,35.4875,-79.177,1840015421
La Verne,California,Los Angeles,34.1207,-117.7703,1840020514
North Chicago,Illinois,Lake,42.3172,-87.8595,1840008086
Westfield,New Jersey,Union,40.6516,-74.3432,1840001096
Oakleaf Plantation,Florida,Clay,30.1689,-81.8337,1840039045
Los Altos,California,Santa Clara,37.3684,-122.0965,1840020328
Miami Lakes,Florida,Miami-Dade,25.9125,-80.3214,1840017275
Washington,Utah,Washington,37.1303,-113.4878,1840021561
Banning,California,Riverside,33.946,-116.8992,1840019297
West Falls Church,Virginia,Fairfax,38.8648,-77.1878,1840006117
Lawrenceville,Georgia,Gwinnett,33.9523,-83.9932,1840014745
Eldersburg,Maryland,Carroll,39.4041,-76.9528,1840005698
Franklin Square,New York,Nassau,40.7002,-73.6775,1840005256
Burlingame,California,San Mateo,37.5859,-122.3667,1840018925
Gurnee,Illinois,Lake,42.3708,-87.9392,1840011152
Morrisville,North Carolina,Wake,35.8368,-78.8348,1840016195
Ferry Pass,Florida,Escambia,30.5205,-87.1899,1840013909
Princeton,New Jersey,Mercer,40.3562,-74.6693,1840001381
Liberty,Missouri,Clay,39.2394,-94.4191,1840008502
Redan,Georgia,DeKalb,33.7394,-84.1644,1840013706
Parkville,Maryland,Baltimore,39.3832,-76.5519,1840005685
Chamblee,Georgia,DeKalb,33.8842,-84.3007,1840014775
North Tonawanda,New York,Niagara,43.0457,-78.8659,1840000372
Saratoga,California,Santa Clara,37.2684,-122.0263,1840021572
Brownsburg,Indiana,Hendricks,39.8337,-86.383,1840009536
Newark,Delaware,New Castle,39.6776,-75.7576,1840005578
Granger,Indiana,St. Joseph,41.7374,-86.1348,1840030079
Niles,Illinois,Cook,42.0278,-87.8099,1840011301
Highland Park,Illinois,Lake,42.1823,-87.8104,1840006973
Middletown,New York,Orange,41.4459,-74.4236,1840000585
Austintown,Ohio,Mahoning,41.0932,-80.7405,1840005185
Summerlin South,Nevada,Clark,36.1242,-115.3324,1840074790
Ruskin,Florida,Hillsborough,27.7065,-82.4209,1840014159
McDonough,Georgia,Henry,33.4397,-84.1505,1840015706
Bowling Green,Ohio,Wood,41.3776,-83.6495,1840000621
Drexel Hill,Pennsylvania,Delaware,39.9495,-75.3038,1840005550
Matthews,North Carolina,Mecklenburg,35.1195,-80.7101,1840016350
Fridley,Minnesota,Anoka,45.0841,-93.2595,1840007798
Paragould,Arkansas,Greene,36.0555,-90.5149,1840014474
Greenville,Texas,Hunt,33.1116,-96.1099,1840020649
Winter Park,Florida,Orange,28.5989,-81.3442,1840015966
Algonquin,Illinois,McHenry,42.1629,-88.3159,1840010110
Hazleton,Pennsylvania,Luzerne,40.9505,-75.9725,1840000753
Crofton,Maryland,Anne Arundel,39.0144,-76.68,1840005909
Gloucester,Massachusetts,Essex,42.626,-70.6897,1840000412
San Carlos,California,San Mateo,37.4982,-122.2677,1840021550
Monterey,California,Monterey,36.5919,-121.8808,1840020358
Rahway,New Jersey,Union,40.6077,-74.2807,1840001091
Atascadero,California,San Luis Obispo,35.4827,-120.6858,1840019126
Orchards,Washington,Clark,45.689,-122.5306,1840018519
Galesburg,Illinois,Knox,40.9506,-90.3763,1840008277
Hobart,Indiana,Lake,41.514,-87.2729,1840007093
Schererville,Indiana,Lake,41.4861,-87.4442,1840010222
Central,Louisiana,East Baton Rouge,30.5593,-91.0369,1840023139
Laurel,Maryland,Prince George's,39.0949,-76.8622,1840005976
Raytown,Missouri,Jackson,38.9944,-94.4641,1840009681
Anderson,South Carolina,Anderson,34.5211,-82.6478,1840013579
Southgate,Michigan,Wayne,42.2047,-83.2057,1840003964
Burton,Michigan,Genesee,42.9974,-83.6175,1840002945
Melrose,Massachusetts,Middlesex,42.4556,-71.059,1840000432
Magna,Utah,Salt Lake,40.7634,-112.1599,1840017499
Casselberry,Florida,Seminole,28.6624,-81.3217,1840015088
San Lorenzo,California,Alameda,37.6733,-122.1332,1840018912
Eastern Goleta Valley,California,Santa Barbara,34.4448,-119.7879,1840153163
Bixby,Oklahoma,Tulsa,35.9454,-95.8776,1840019058
Oak Park,Michigan,Oakland,42.4649,-83.1824,1840002424
Garfield Heights,Ohio,Cuyahoga,41.4199,-81.6038,1840000602
Vero Beach South,Florida,Indian River,27.6132,-80.4163,1840073853
Fleming Island,Florida,Clay,30.0988,-81.7124,1840038864
Texarkana,Arkansas,Miller,33.436,-93.9959,1840015708
Englewood,New Jersey,Bergen,40.8917,-73.9736,1840003546
Fountain,Colorado,El Paso,38.6886,-104.6829,1840020236
Kirkwood,Missouri,St. Louis,38.5788,-90.4203,1840008598
Jacksonville,Arkansas,Pulaski,34.8807,-92.1304,1840014633
Harrison,New York,Westchester,41.0236,-73.7193,1840004931
Clarksburg,Maryland,Montgomery,39.2246,-77.2659,1840005830
Suisun City,California,Solano,38.2473,-122.0091,1840028115
Statesville,North Carolina,Iredell,35.7842,-80.8713,1840015358
East Palo Alto,California,San Mateo,37.4671,-122.1352,1840020301
Mehlville,Missouri,St. Louis,38.5018,-90.3149,1840006120
Easton,Pennsylvania,Northampton,40.6858,-75.2209,1840000970
Sachse,Texas,Dallas,32.9726,-96.5793,1840020712
East Lake-Orient Park,Florida,Hillsborough,27.997,-82.3653,1840073826
Russellville,Arkansas,Pope,35.2762,-93.1383,1840014541
Independence,Kentucky,Kenton,38.951,-84.5492,1840014267
Shaker Heights,Ohio,Cuyahoga,41.4744,-81.5496,1840003412
Enterprise,Alabama,Coffee,31.3275,-85.8463,1840001548
Jeffersontown,Kentucky,Jefferson,38.2049,-85.5701,1840014311
Perry Hall,Maryland,Baltimore,39.4068,-76.478,1840005686
Lake in the Hills,Illinois,McHenry,42.1913,-88.3477,1840011129
Greenville,Mississippi,Washington,33.385,-91.0514,1840013759
Burbank,Illinois,Cook,41.7444,-87.7686,1840007022
Golden Gate,Florida,Collier,26.1844,-81.7031,1840014228
Converse,Texas,Bexar,29.5091,-98.3084,1840019655
Twentynine Palms,California,San Bernardino,34.1478,-116.0659,1840021729
Daphne,Alabama,Baldwin,30.6263,-87.8816,1840006178
Danville,Illinois,Vermilion,40.1426,-87.6111,1840007235
Northampton,Massachusetts,Hampshire,42.3266,-72.6745,1840000451
Carney,Maryland,Baltimore,39.405,-76.5235,1840005678
East Niles,California,Kern,35.3683,-118.9225,1840150304
Temescal Valley,California,Riverside,33.7581,-117.4677,1840043023
Forest Hills,Michigan,Kent,42.9577,-85.4895,1840004304
Laplace,Louisiana,St. John the Baptist,30.0731,-90.4758,1840013968
Frankfort,Kentucky,Franklin,38.1924,-84.8643,1840013210
Lansing,Illinois,Cook,41.5648,-87.5462,1840011257
Madison Heights,Michigan,Oakland,42.5073,-83.1034,1840002449
Jamestown,New York,Chautauqua,42.0976,-79.2367,1840000446
Monroeville,Pennsylvania,Allegheny,40.4262,-79.7605,1840003631
Apollo Beach,Florida,Hillsborough,27.7618,-82.4003,1840014149
Aberdeen,South Dakota,Brown,45.4649,-98.4686,1840002032
Fort Mill,South Carolina,York,35.0061,-80.9389,1840016479
Rockledge,Florida,Brevard,28.3203,-80.736,1840015095
Glen Ellyn,Illinois,DuPage,41.8666,-88.0629,1840011405
Bergenfield,New Jersey,Bergen,40.9236,-73.9982,1840000893
Fortuna Foothills,Arizona,Yuma,32.6616,-114.3974,1840027989
Forney,Texas,Kaufman,32.744,-96.4529,1840020734
Eagle Pass,Texas,Maverick,28.7125,-100.484,1840019690
Short Pump,Virginia,Henrico,37.6549,-77.6201,1840006394
Citrus Park,Florida,Hillsborough,28.073,-82.5628,1840014152
Chaska,Minnesota,Carver,44.8164,-93.6091,1840006760
Ridgecrest,California,Kern,35.6308,-117.6622,1840020417
Allen Park,Michigan,Wayne,42.2595,-83.2107,1840003967
Maple Valley,Washington,King,47.3659,-122.0368,1840019828
Oakdale,Minnesota,Washington,44.9876,-92.9641,1840007813
Glen Cove,New York,Nassau,40.8709,-73.6287,1840000987
Ramsey,Minnesota,Anoka,45.2617,-93.4494,1840008904
Crestview,Florida,Okaloosa,30.7477,-86.5785,1840015007
Clayton,North Carolina,Johnston,35.659,-78.4498,1840016290
Tysons,Virginia,Fairfax,38.9215,-77.2273,1840006040
Henderson,Kentucky,Henderson,37.8397,-87.5798,1840014337
Maryland Heights,Missouri,St. Louis,38.7189,-90.4749,1840008591
Williston,North Dakota,Williams,48.1814,-103.6364,1840001871
New Iberia,Louisiana,Iberia,30.0049,-91.8202,1840015053
Lake Jackson,Texas,Brazoria,29.0516,-95.4521,1840020980
Huntley,Illinois,McHenry,42.1599,-88.433,1840011134
Walnut,California,Los Angeles,34.0334,-117.8593,1840021875
Prior Lake,Minnesota,Scott,44.7246,-93.4419,1840008956
Hamtramck,Michigan,Wayne,42.3954,-83.0559,1840003980
Shirley,New York,Suffolk,40.7936,-72.8748,1840005097
Monsey,New York,Rockland,41.1181,-74.0682,1840004961
Garden City,Kansas,Finney,37.9753,-100.8527,1840001669
Madison,Mississippi,Madison,32.4738,-90.13,1840015782
McHenry,Illinois,McHenry,42.3387,-88.2932,1840008085
Reisterstown,Maryland,Baltimore,39.455,-76.814,1840005689
South Laurel,Maryland,Prince George's,39.0603,-76.8456,1840031498
Tualatin,Oregon,Washington,45.3772,-122.7748,1840021207
Alvin,Texas,Brazoria,29.3872,-95.2938,1840019671
Homewood,Alabama,Jefferson,33.4619,-86.809,1840014794
Mount Pleasant,Wisconsin,Racine,42.7129,-87.8876,1840038102
Dodge City,Kansas,Ford,37.7611,-100.0182,1840001684
West Melbourne,Florida,Brevard,28.0694,-80.6736,1840015963
Drexel Heights,Arizona,Pima,32.1453,-111.048,1840027928
Williamsport,Pennsylvania,Lycoming,41.2399,-77.037,1840000637
Lochearn,Maryland,Baltimore,39.3461,-76.7307,1840005694
Silver Springs Shores,Florida,Marion,29.1126,-82.0149,1840028949
Ilchester,Maryland,Howard,39.2187,-76.7683,1840024482
Wilmette,Illinois,Cook,42.0771,-87.7282,1840011316
Belmont,California,San Mateo,37.5154,-122.2953,1840018924
Mililani Town,Hawaii,Honolulu,21.4465,-158.0147,1840023249
Marshalltown,Iowa,Marshall,42.0343,-92.9068,1840008112
Lemon Grove,California,San Diego,32.7331,-117.0344,1840020621
Athens,Alabama,Limestone,34.7843,-86.9503,1840000935
Pearl,Mississippi,Rankin,32.273,-90.0918,1840014888
New Lenox,Illinois,Will,41.5095,-87.9703,1840011493
Kernersville,North Carolina,Forsyth,36.1065,-80.0842,1840016123
Millville,New Jersey,Cumberland,39.3903,-75.0561,1840001550
Clinton,Mississippi,Hinds,32.354,-90.3403,1840014893
Neenah,Wisconsin,Winnebago,44.1669,-88.4767,1840002244
Marion,Indiana,Grant,40.5497,-85.6604,1840013868
Green,Ohio,Summit,40.9483,-81.4757,1840008254
Asheboro,North Carolina,Randolph,35.7158,-79.8127,1840013400
Deer Park,New York,Suffolk,40.7623,-73.3218,1840005034
Fremont,Nebraska,Dodge,41.4395,-96.4873,1840003346
Union City,Georgia,Fulton,33.5942,-84.5629,1840015610
Thomasville,North Carolina,Davidson,35.8813,-80.0807,1840015361
Pooler,Georgia,Chatham,32.1043,-81.2569,1840014914
Wright,Florida,Okaloosa,30.4445,-86.6419,1840013921
New London,Connecticut,Southeastern Connecticut,41.3502,-72.1022,1840004827
Kent,Ohio,Portage,41.149,-81.361,1840008256
Balch Springs,Texas,Dallas,32.7194,-96.6151,1840019435
Celina,Texas,Collin,33.3154,-96.7941,1840019395
Mason City,Iowa,Cerro Gordo,43.1487,-93.1997,1840000380
Lindenhurst,New York,Suffolk,40.6858,-73.371,1840005122
Gladstone,Missouri,Clay,39.2134,-94.5592,1840008496
Kahului,Hawaii,Maui,20.8715,-156.4603,1840023232
West Linn,Oregon,Clackamas,45.367,-122.6399,1840021218
Carrollton,Georgia,Carroll,33.5818,-85.0838,1840014801
Lemoore,California,Kings,36.2949,-119.7983,1840020383
Wooster,Ohio,Wayne,40.8172,-81.9336,1840000961
Sun City West,Arizona,Maricopa,33.6695,-112.3573,1840019312
Fulshear,Texas,Fort Bend,29.693,-95.8804,1840020946
Waukee,Iowa,Dallas,41.5985,-93.8869,1840010181
Mint Hill,North Carolina,Mecklenburg,35.1783,-80.6528,1840016351
Chicago Heights,Illinois,Cook,41.51,-87.6345,1840007024
Brawley,California,Imperial,32.9783,-115.5287,1840019378
Temple Terrace,Florida,Hillsborough,28.0436,-82.3773,1840015983
Leisure City,Florida,Miami-Dade,25.4935,-80.4363,1840014245
Garden City,Michigan,Wayne,42.3244,-83.3412,1840003974
Paducah,Kentucky,McCracken,37.0711,-88.644,1840014388
Oak Forest,Illinois,Cook,41.6054,-87.7527,1840008132
Plum,Pennsylvania,Allegheny,40.5024,-79.7495,1840003632
Palm Springs,Florida,Palm Beach,26.6348,-80.0969,1840018308
Benicia,California,Solano,38.0725,-122.1526,1840018858
Woodburn,Oregon,Marion,45.1472,-122.8603,1840021230
Kalispell,Montana,Flathead,48.2153,-114.3274,1840018350
South Portland,Maine,Cumberland,43.631,-70.2895,1840000328
Camas,Washington,Clark,45.6005,-122.4304,1840018524
Vernon Hills,Illinois,Lake,42.234,-87.9608,1840011181
Ewa Gentry,Hawaii,Honolulu,21.3344,-158.0262,1840029577
Cabot,Arkansas,Lonoke,34.9766,-92.0274,1840013530
Lutz,Florida,Hillsborough,28.1396,-82.4467,1840014156
Batavia,Illinois,Kane,41.8479,-88.3109,1840007035
Shoreview,Minnesota,Ramsey,45.0842,-93.1358,1840008938
Keystone,Florida,Hillsborough,28.1312,-82.5999,1840028914
Palm River-Clair Mel,Florida,Hillsborough,27.9239,-82.3791,1840073873
Troy,Ohio,Miami,40.0437,-84.2186,1840010508
Wheeling,West Virginia,Ohio,40.0752,-80.6951,1840005510
Granite City,Illinois,Madison,38.7296,-90.1268,1840008565
Horn Lake,Mississippi,DeSoto,34.9512,-90.0501,1840014643
West Islip,New York,Suffolk,40.7041,-73.2954,1840005111
Superior,Wisconsin,Douglas,46.6941,-92.0823,1840038034
Edwardsville,Illinois,Madison,38.7922,-89.9874,1840008564
Marysville,Ohio,Union,40.2279,-83.3595,1840008355
Jenks,Oklahoma,Tulsa,35.9981,-95.9736,1840019060
Tumwater,Washington,Thurston,46.9891,-122.9175,1840021145
Sanger,California,Fresno,36.699,-119.5575,1840021566
Rosemount,Minnesota,Dakota,44.7466,-93.0661,1840008951
Paramus,New Jersey,Bergen,40.9455,-74.0712,1840000916
Auburn,New York,Cayuga,42.9338,-76.5685,1840000367
Venice,Florida,Sarasota,27.1184,-82.4137,1840015989
Owatonna,Minnesota,Steele,44.0912,-93.2312,1840008983
Forest Grove,Oregon,Washington,45.5243,-123.1097,1840019930
Carolina Forest,South Carolina,Horry,33.7651,-78.913,1840147796
Elk River,Minnesota,Sherburne,45.3314,-93.567,1840007794
Elmira,New York,Chemung,42.0938,-76.8097,1840000472
Woodstock,Illinois,McHenry,42.3096,-88.4353,1840010107
Leland,North Carolina,Brunswick,34.2042,-78.0279,1840016683
Eureka,California,Humboldt,40.7943,-124.1564,1840009558
South Pasadena,California,Los Angeles,34.1103,-118.1573,1840021871
South Salt Lake,Utah,Salt Lake,40.7057,-111.8986,1840021386
Holbrook,New York,Suffolk,40.7944,-73.07,1840005078
Plainview,New York,Nassau,40.7832,-73.4732,1840005250
Hercules,California,Contra Costa,38.0064,-122.2564,1840020276
Lockport,Illinois,Will,41.5906,-88.0293,1840009256
Wasco,California,Kern,35.5938,-119.3671,1840021738
Wilsonville,Oregon,Clackamas,45.3109,-122.7702,1840021219
Elkridge,Maryland,Howard,39.1941,-76.7428,1840005801
Fairland,Maryland,Montgomery,39.0803,-76.9527,1840001593
Trussville,Alabama,Jefferson,33.6405,-86.5815,1840015672
Windsor,California,Sonoma,38.5422,-122.8089,1840022484
Austin,Minnesota,Mower,43.6721,-92.9784,1840006830
East Chicago,Indiana,Lake,41.6469,-87.4545,1840008193
Ives Estates,Florida,Miami-Dade,25.9632,-80.183,1840028705
Oxford,Mississippi,Lafayette,34.3627,-89.5336,1840014688
Conway,South Carolina,Horry,33.8401,-79.0431,1840014716
Ridgewood,New Jersey,Bergen,40.9821,-74.1127,1840000899
Medina,Ohio,Medina,41.1358,-81.8695,1840003486
North Tustin,California,Orange,33.7636,-117.7947,1840019319
Cave Spring,Virginia,Roanoke,37.2254,-80.0072,1840006440
Chanhassen,Minnesota,Carver,44.8546,-93.5621,1840006759
Franklin,Indiana,Johnson,39.4948,-86.0544,1840008460
Winona,Minnesota,Winona,44.0505,-91.6684,1840010034
Norfolk,Nebraska,Madison,42.0324,-97.4217,1840008136
Florence,Arizona,Pinal,33.059,-111.4209,1840021999
Kuna,Idaho,Ada,43.488,-116.3933,1840020047
Lodi,New Jersey,Bergen,40.8784,-74.0814,1840003535
Fish Hawk,Florida,Hillsborough,27.8511,-82.2164,1840028982
Colleyville,Texas,Tarrant,32.8913,-97.1486,1840019430
Imperial Beach,California,San Diego,32.5693,-117.118,1840019353
Moscow,Idaho,Latah,46.7308,-116.9986,1840019868
Ballenger Creek,Maryland,Frederick,39.3807,-77.4206,1840031490
Terrytown,Louisiana,Jefferson,29.9014,-90.0279,1840013990
Fort Washington,Maryland,Prince George's,38.7339,-77.0069,1840005953
Key West,Florida,Monroe,24.5642,-81.7775,1840015161
Grandview,Missouri,Jackson,38.8802,-94.5227,1840008532
Derby,Kansas,Sedgwick,37.5571,-97.2551,1840007569
Fort Hood,Texas,Coryell,31.1357,-97.7834,1840073932
El Cerrito,California,Contra Costa,37.9196,-122.3025,1840020275
Rockville Centre,New York,Nassau,40.6643,-73.6383,1840005320
